pid,name,city,region,postal_code,tenant_type,longitude,latitude
fd96f868-0360-4a7a-b582-51e09f84e8e8,Harbor Freight Tools,Albuquerque,NM,87105,Furniture & Home,-106.68774,35.084217
6ac00d23-238a-4549-b882-0baa4ac54ef4,Phillips 66,St. Joseph,MO,64506,Convenience & Gas Stations,-94.814156,39.80714
2de1c0f1-0610-4677-b1b7-e870ec809225,Big Sandy Superstore,Cape Girardeau,MO,63703,Furniture & Home,-89.51892,37.302505
fec7942c-475c-4dc1-900d-385903d2b9d8,United States Postal Service (USPS),Middleburg,FL,32068,Services,-81.86285,30.073263
da2b0a4d-9125-4f6d-8385-0fdc75c37db8,Shell Oil,Addison,TX,75001,Convenience & Gas Stations,-96.855385,32.93971
826a7991-f7f1-4bd3-abc2-d6b07b0a0aa7,Skippers,St. Helens,OR,97051,Restaurants & Bars,-122.82499,45.85591
5f8486e9-55d7-483e-8374-25f64b6f1ca0,Jiffy Lube,Denver,CO,80249,Automotive,-104.77259,39.779133
ebc44029-829c-48cc-a8f0-c141f8263ce2,It's Just Wings,Jacksonville,FL,32258,Quick Serve Restaurants,-81.54748,30.142902
ebd49b99-151b-47d0-b036-79dcff36bd92,Starbucks,Voorhees,NJ,08043,Quick Serve Restaurants,-74.92509,39.835083
4a599458-6e34-439a-bc01-3a2e8881b199,Embassy Suites Hotels,Burlingame,CA,94010,Services,-122.348015,37.591534
2bd0b39a-eecb-4f58-ab98-541a2ebcceca,Sunbelt Rentals,Roseville,CA,95678,Services,-121.30681,38.796272
a6714f04-9e22-4e62-ac8d-edf362a6055c,Johnson Fitness & Wellness,University Park,TX,75225,Sporting Goods,-96.81199,32.851505
832d9e07-f30d-440c-8352-52d092b306cf,Alexis Tremainsville Shopping,Toledo,OH,43613,unbranded,-83.619,41.72
b5c0999b-75f8-48f8-b7cc-3b1fcdb1b993,Captain D's Seafood Restaurant,Parker,FL,32404,Restaurants & Bars,-85.59175,30.142155
f42b38c2-6d13-4d80-b59a-ee5d45313a2e,Boost Mobile,New York,NY,10451,Electronics & Wireless,-73.914696,40.82422
e89c9d99-3385-43d9-b3a8-b3894a40cb0d,Allstate Insurance,Austin,TX,78750,Services,-97.79602,30.46059
3a8113c1-be40-4fd9-9f8f-651b6607ac20,Brookshire's Grocery Company,Commerce,TX,75428,"Food, Groceries & Supermarkets",-95.904564,33.235973
fc188e5f-de9a-49f1-98be-f9a469a46365,LL Flooring,Lansing,MI,48911,Furniture & Home,-84.54419,42.662437
62f770ae-b19d-4387-add5-2c311ddc616a,Lanier Parking,Charlottesville,VA,22902,Services,-78.47617,38.030468
58f5cec0-46b1-4bc2-b830-0e2cd9371a8f,People's United Bank,Essex Junction,VT,05452,Services,-73.13782,44.505215
de98229d-b64c-4971-85a3-151853f829d2,Bank of America,Carrollton,GA,30117,Services,-85.08238,33.575466
5107acb5-45a2-4c56-bd4b-13d9fecece28,Chase,Charlotte,NC,28277,Services,-80.850624,35.05699
9ef6cc44-a7fc-462f-804d-7f2e8aaa983a,Starbucks,Canton,MI,48187,Quick Serve Restaurants,-83.470604,42.323063
b70733ca-7a76-4589-be27-a18fa1cfcda8,Citizens Bank,Ludlow,MA,01056,Services,-72.48496,42.158226
faa1ca3b-e1d3-4c3a-ac5b-5bab73269287,Starbucks,Madison,WI,53717,Quick Serve Restaurants,-89.52485,43.065002
ee1eb01b-5ae4-4fa8-98c6-45865adf3e56,Fountain Valley Shopping Center,Fountain,CO,80911,unbranded,-104.744705,38.750908
62388311-7239-47e3-ba01-5ac3fdd01e66,Rally's Drive-In Restaurants,Conway,AR,72032,Quick Serve Restaurants,-92.431946,35.092007
659a3bc6-c801-4b84-97df-cbca39c83fac,UCBI,Conway,SC,29527,Services,-79.06256,33.844807
88bbc953-bd0c-47df-bb96-6c5008fb15d0,Regions Bank,Loganville,GA,30052,Services,-83.90766,33.842552
681117f5-c29d-4ec8-853b-3d4227b47778,Rocky Mountain Chocolate,Houston,TX,77032,"Food, Groceries & Supermarkets",-95.35019,29.987005
d1c0e3eb-0d46-4184-8eac-8e94e432cc2a,Liberty Tax Service,Sayreville,NJ,08859,Services,-74.29766,40.463932
ff9529d5-0ad5-4296-90ff-bad18cf076d4,Sprint,Raynham,MA,02767,Electronics & Wireless,-71.05308,41.90539
9fa2ee3d-3e19-4b17-ab48-646c22c85431,Food Lion,Forestbrook,SC,29579,"Food, Groceries & Supermarkets",-78.94966,33.73337
a235741c-eb16-4618-af91-44c101a6a112,Polo Ralph Lauren Factory Store,Edinburgh,IN,46124,Apparel & Accessories,-85.9619,39.311474
b75cddb3-bd25-48bd-96de-4e41f423a52b,KFC,Kennett,MO,63857,Quick Serve Restaurants,-90.03364,36.24026
835665a1-e95e-4b15-a1fc-14631aeb045c,Fat Shack,Bellingham,WA,98226,Restaurants & Bars,-122.49493,48.790054
85003221-f8e0-4eb8-aba0-5f6780306dd9,Cost Cutters,Columbia,MO,65201,Services,-92.296074,38.950397
2c495238-73be-4ef7-941c-4a01367a29b5,Boost Mobile,Belleview,FL,34420,Electronics & Wireless,-82.054825,29.059757
5449d1a6-cd96-4393-9f6e-a8a3915617d8,Edward Jones,California,MD,20619,Services,-76.51481,38.301533
0e3fe139-9f9e-480c-acd5-c4ef87dfd043,Farmers Insurance Group,Hayward,CA,94545,Services,-122.105125,37.65314
5ab3d882-fab9-4a88-bcb6-1d195be67059,Buehler's Fresh Foods,Wadsworth,OH,44281,"Food, Groceries & Supermarkets",-81.73198,41.04746
9f9e61e3-f95f-47e5-9d6e-247d831e1aa7,Panera Bread,Indianapolis city (balance),IN,46231,Quick Serve Restaurants,-86.32571,39.763233
913cfe3f-ca20-4d3a-a0ef-dc27cb7dd38b,7-Eleven,Highland City,FL,33812,Convenience & Gas Stations,-81.87136,27.953466
a799d07a-9ea8-4b0d-b85c-864502ca7102,Jiffy Lube,Richmond,IN,47374,Automotive,-84.86133,39.830475
73261f38-d1e7-4c89-af5b-598e3ea8933b,Ferguson,Cathedral City,CA,92234,Other,-116.46428,33.785023
04b16af2-875a-48d4-9d68-e88654c32341,Dressbarn,Austell,GA,30106,Apparel & Accessories,-84.602356,33.853355
40f57857-080c-4ada-9902-8c0302cda542,CVS,Athens,OH,45701,General Merchandise,-82.10098,39.328182
797f13af-b3da-44cc-8258-cae57d07e1dd,Cellular Plus,Great Falls,MT,59405,Electronics & Wireless,-111.29051,47.493713
052ce337-794e-4613-9c02-3d49abe4d329,BP,Chicopee,MA,01020,Convenience & Gas Stations,-72.574036,42.196297
d91f7519-8f2b-4879-8a82-0dd70a9e1b08,United States Postal Service (USPS),Matewan,WV,25678,Services,-82.165565,37.62305
190dc0e0-253a-44b4-9267-fd8bf55e9acc,Shell Oil,Naperville,IL,60564,Convenience & Gas Stations,-88.20247,41.681065
8c5b2029-c5b4-4068-bc7e-346604c5a498,KFC,Denver,CO,80204,Quick Serve Restaurants,-105.02558,39.743423
3f59fa40-147e-4903-904c-19ffcba1468d,Progressive,Albuquerque,NM,87110,Services,-106.60462,35.096085
cc6e2e59-0f87-4094-a491-9a7fe95b53bc,Menchie's,Bellaire,TX,77401,Quick Serve Restaurants,-95.4699,29.706804
d576e5f5-fadf-41e1-ac07-56e56cbedf6d,Topgolf,Charlotte,NC,28262,Leisure & Recreation,-80.770195,35.287586
13c8ce66-f6c8-46d7-80dc-bd8abcb10353,Dollar General,Camilla,GA,31730,General Merchandise,-84.41289,31.079214
41017524-962a-4656-a147-cf763fea5cf6,Stop & Shop,Jackson,NJ,08527,"Food, Groceries & Supermarkets",-74.27349,40.12681
44f8fa19-c3e9-4ba4-be07-3734c47fc333,Two Men And A Truck,Toledo,OH,43612,Other,-83.5534,41.714157
53dd8044-9cd6-4cbd-8e7f-795f48f7dad7,Five Below,Freeport,NY,11520,General Merchandise,-73.57123,40.655678
19a811dd-9e97-41ef-8589-2b035c8e77a2,Boost Mobile,Brewster,NY,10509,Electronics & Wireless,-73.618835,41.39417
b9089483-a1c6-4644-840d-4c007b89a78a,Chase,Sun City,AZ,85373,Services,-112.277466,33.638577
55bac391-10dc-440e-bf6d-8b3e843847df,ARCO,Avocado Heights,CA,91746,Convenience & Gas Stations,-117.99752,34.041336
3ab60abc-cb6f-4b70-9847-7196d33296fd,Pier 1 Imports,Fresno,CA,93650,Furniture & Home,-119.79114,36.84474
ca4a34d1-be93-4a9e-972b-397d0c0bc017,Brooks Brothers,New York,NY,10023,Apparel & Accessories,-73.98187,40.7728
3698e1af-ab1e-468e-81be-fd53ad2b69ff,Subway,Crescent City,FL,32112,Quick Serve Restaurants,-81.51119,29.43715
a0de7b7f-4056-4be6-a136-c6fd944761d4,Whitts Barbeque,Nashville-Davidson metropolitan government (balance),TN,37013,Restaurants & Bars,-86.68394,36.07082
b44890bf-0c99-4805-9681-2f6a39b15b26,Shell Oil,Harwood Heights,IL,60706,Convenience & Gas Stations,-87.787025,41.96367
79ff109a-8a4f-4ba5-8736-58c86186bbe4,Hampton,Rochester,MN,55904,Services,-92.46434,43.99643
f9c837bc-3494-40f8-a2cd-17e110685fb0,The Big Apple Food Stores,Arundel,ME,04046,Convenience & Gas Stations,-70.523735,43.406704
3aca51b7-850d-4476-942c-9dcf2ae3bcb6,Which Wich,Carmel,IN,46032,Quick Serve Restaurants,-86.15429,39.971928
5ba95ae6-1c75-4087-8cd2-3f22200738d7,Hardee's,Philadelphia,MS,39350,Quick Serve Restaurants,-89.128006,32.77089
fd78dffd-283e-4000-b2c9-89b2b41a90ac,ampm,Bellingham,WA,98225,Convenience & Gas Stations,-122.47764,48.714188
acd23140-59a3-4f1b-8f03-582f26f66ffd,Kura Sushi,Garden Grove,CA,92843,Quick Serve Restaurants,-117.95389,33.761833
087e6635-1d3b-4651-a77b-1cb94fa50ed2,Labor Ready,Bow,NH,03304,Services,-71.51145,43.162766
7e5e7787-c946-456d-b743-e629f76372c1,Country Inn & Suites By Radisson,Rossford,OH,43551,Services,-83.58299,41.566227
b782c568-76f4-4ff0-86b1-86ec05e8c8f4,Subway,Fort Myers,FL,33908,Quick Serve Restaurants,-81.91292,26.507244
5b2297de-7b78-4fba-a661-1a88c388bf12,Nike Factory Store,Round Rock,TX,78665,Footwear,-97.68998,30.564682
23b563af-def1-4df5-8f02-8515a887339c,Lovesac,Coconut Creek,FL,33073,Furniture & Home,-80.187584,26.284035
9441893b-ae23-4a25-9c3c-318866359140,Wells Fargo,York,PA,17401,Services,-76.727036,39.9623
54af4900-eae3-48e0-ae1d-4114605edcdd,Metro by T-Mobile,Allentown,PA,18103,Electronics & Wireless,-75.460464,40.583435
8162f5d9-d0ac-42e5-9717-af9471e380a4,Wells Fargo,Winston-Salem,NC,27106,Services,-80.264305,36.122494
db12b550-9ba3-47b5-bc3a-10c39c2d9bc1,United States Postal Service (USPS),Christmas,FL,32709,Services,-81.01945,28.535847
698759ca-9c8f-4990-8599-a717285873a3,AutoZone,Tamiami,FL,33184,Automotive,-80.390945,25.76016
ea59bdf8-252f-49c4-90c9-d56fbd7c8fe3,Arby's,Lafayette,IN,47905,Quick Serve Restaurants,-86.85508,40.394848
ae0f7712-cd1c-4ff5-b1ef-cdbe367354ec,Sonic,Anniston,AL,36207,Quick Serve Restaurants,-85.80448,33.62975
8afb57eb-f60b-4e59-a2ff-fbf056e35718,Spring Market,Palmer,TX,75152,"Food, Groceries & Supermarkets",-96.6693,32.436954
4da8031b-526a-4e5f-9484-df6fe910a06b,Office Depot,Waldorf,MD,20603,Specialty Retail,-76.91574,38.6268
845bef43-0520-4914-8cde-071d255eb523,State Farm,Houston,TX,77069,Services,-95.49655,29.989756
b8cf22c6-070b-4e06-b3ac-9acd637e5dec,Re Max Advantage,Searcy,AR,72143,Services,-91.73851,35.244263
f7326128-1244-49e6-8fb9-9975dfce8659,Wendy's,Petaluma,CA,94952,Quick Serve Restaurants,-122.6347,38.239162
9b79c3fa-3a5c-4741-aa64-56f947c0e134,AT&T,Philadelphia,PA,19120,Electronics & Wireless,-75.12067,40.03643
6c908eb3-547d-4be5-8608-b829aaff7d8f,Walgreens,Plymouth,IN,46563,General Merchandise,-86.31085,41.3589
d6ed46a1-e9b1-4998-9173-76fd6328afd6,Boost Mobile,Chicago,IL,60608,Electronics & Wireless,-87.6662,41.83591
d6a3881f-583d-4276-b7fe-e4c9be7d3bf9,Giant Food Pharmacy,Newington,VA,22153,General Merchandise,-77.213524,38.739677
ac267513-9b58-4c59-9b04-6643560aad2e,LEGO,Urban Honolulu,HI,96814,Specialty Retail,-157.84541,21.291729
f227d99d-b224-43f6-9c85-b21ee6c0be47,Papa John's,Johnson City,TN,37604,Quick Serve Restaurants,-82.36188,36.30821
2b04d05b-cd8b-488a-a1b9-683a5b8dad26,Pizza Hut,Porterville,CA,93257,Quick Serve Restaurants,-119.02263,36.080696
ef6ec6b8-d437-4108-994c-48e7331c8b5d,Waterford Plaza,Waterford,CA,95386,unbranded,-120.76802,37.637318
80c68e57-0335-40f5-abca-a374f7483402,CVS Pharmacy,New Carlisle,OH,45344,General Merchandise,-84.025566,39.935696
9cbb9faf-c3d7-4274-84a0-244dd23dbd43,State Farm,Cartersville,GA,30120,Services,-84.7957,34.18969
b892abc1-33ff-4113-b72e-1e3c7402366f,Velox Insurance,Rome,GA,30165,Services,-85.22679,34.27295
a9d591ec-c111-40fc-bdcd-0718b16718da,Wendy's,Palm Springs,FL,33461,Quick Serve Restaurants,-80.08986,26.61015
5ff1436d-0bc7-4c1e-9b53-3c696a412ffe,Yoga Pod,Boulder,CO,80305,Leisure & Recreation,-105.250114,39.9841
98c89e24-5b6d-43a2-889a-c485cb8ef80c,Brixx Wood Fired Pizza,Greensboro,NC,27408,Quick Serve Restaurants,-79.814644,36.091827
420b696b-e51e-4b6f-b694-fcaff482259b,7-Eleven,Santa Clara,CA,95051,Convenience & Gas Stations,-121.99244,37.338516
84f98774-2e22-4c7a-8cdd-34ebab467030,CVS,Miami,FL,33145,General Merchandise,-80.23673,25.750135
2bc773da-0f03-48be-ae27-28a28c9cabc5,Bank of Marin,Oakland,CA,94612,Services,-122.2625,37.81129
0c592da9-3252-4488-be92-06b23111be5b,Valero Energy,Carencro,LA,70520,Convenience & Gas Stations,-92.11716,30.297688
d7d01de3-1bc5-4089-86fd-dcbf4af43de1,Famous Footwear,Phoenix,AZ,85022,Footwear,-112.06691,33.63842
2dde45bd-4967-4377-895d-c3d8ee905a33,Store Space Self Storage,Ocala,FL,34475,Services,-82.168755,29.234568
526fb6ce-4e1d-4176-aa62-8722cc244af7,Painting with a Twist,Pasadena,TX,77505,Other,-95.16869,29.648912
1b7ccaa8-7b09-4a16-b834-e13d62aaa5da,Domino's Pizza,New York,NY,11201,Quick Serve Restaurants,-73.99057,40.686943
9587cfae-9b0f-4991-9744-ea03977286cb,Safeway,Fountain Hills,AZ,85268,"Food, Groceries & Supermarkets",-111.72791,33.609528
ee1f6c3b-6694-4dfb-b8c5-1ce7553aac8e,Charley's,Daytona Beach,FL,32119,Quick Serve Restaurants,-81.03011,29.17257
3402a715-484d-4785-ae83-fd12f6c45a53,Starbucks,Peoria,AZ,85383,Quick Serve Restaurants,-112.20602,33.71149
f99d049b-38dc-4833-867b-0c5159adb56a,Progressive,Lansdale,PA,19446,Services,-75.28881,40.24491
ffac3f30-085c-4779-81d0-8443733221d8,Shipley Donuts,Lake Charles,LA,70605,"Food, Groceries & Supermarkets",-93.248764,30.1912
43550265-f23e-47c3-8791-ddc8e5620a0d,The Flame Broiler,San Dimas,CA,91773,Quick Serve Restaurants,-117.82844,34.10748
6ffc3d40-bb20-49bf-ac45-74dc0eb64c95,Dunkin',Guilderland,NY,12084,Quick Serve Restaurants,-73.89031,42.69773
da158b36-5037-4a32-a5ba-296e898876cc,Walgreens,Monticello,NY,12701,General Merchandise,-74.682686,41.65344
27d49fd1-7b89-429c-b394-fd7803a1f47e,Jackson Hewitt Tax Service,Concord,NC,28027,Services,-80.622894,35.388912
059b1128-0287-4fce-ac69-3d298f6c87fd,Walgreens,Sparks,NV,89434,General Merchandise,-119.70474,39.55894
15c5a3df-6346-43fc-bca3-59bc823e17ce,Microtel Inn and Suites,Pleasanton,TX,78064,Services,-98.50481,28.943626
b22b3c8f-f0d0-4745-b45c-c93d1578d1b7,Mobil,Manchester,CT,06042,Convenience & Gas Stations,-72.55592,41.805622
ccc872aa-5250-4d3b-b5c3-2bd20234dabb,Chase,Burbank,CA,91506,Services,-118.32222,34.16868
f280b7ca-22cd-4226-b96c-68017bb939ba,Jamba,Manteca,CA,95336,Quick Serve Restaurants,-121.19231,37.796867
9b085e66-962b-4ad5-8685-b38954044950,Boston Sports Clubs,New York,NY,11209,Leisure & Recreation,-74.02703,40.633778
c182be93-45db-4f68-b940-9c8df234bc05,Progressive,Lansing,IL,60438,Services,-87.53152,41.564423
7ad2e5f8-4a81-4433-8c2e-9de5499b9604,Walgreens,Reedley,CA,93654,General Merchandise,-119.44027,36.604706
fcc448b8-e08d-4a3d-87bb-b324c3df7207,Subway,Des Moines,IA,50317,Quick Serve Restaurants,-93.55301,41.62534
f9cb7786-060a-49a0-987d-c55b9cc98046,Dollar Tree,Merrillville,IN,46410,General Merchandise,-87.336754,41.51177
2c82a68f-deb7-47ae-934f-7089de713f43,State Farm,Irving,TX,75039,Services,-96.94322,32.894905
9f34b068-fdf0-47be-80e6-662eafcc31a5,O'Reilly Auto Parts,Silver City,NM,88061,Automotive,-108.24875,32.78835
cbb38f2c-9bcc-4e5e-a7b1-17b857bfd366,Taco Bell,Suisun City,CA,94585,Quick Serve Restaurants,-122.020004,38.244553
a0bf8f37-fb74-453c-8a92-e6ac3b46d89a,Drnk Coffee + Tea,Lansdowne,VA,20176,Quick Serve Restaurants,-77.49518,39.081444
b3a72b88-55dd-404f-bbf3-058c096905fa,Subway,Mount Joy,PA,17552,Quick Serve Restaurants,-76.48657,40.110256
b543935d-e4e5-4791-b86f-a9429dfc7d6b,McDonald's,Raleigh,NC,27609,Quick Serve Restaurants,-78.621254,35.867413
77a9ed92-ca51-4564-8c5b-088553a6e719,CITGO,Rockmart,GA,30153,Convenience & Gas Stations,-85.0051,33.976055
874fd32f-710e-43a8-b42d-f2714e1acab6,Jackson Hewitt Tax Service,Hendersonville,TN,37075,Services,-86.595375,36.322712
ae9b7393-7a33-457f-b136-c6b28af65350,7-Eleven,Winter Park,FL,32789,Convenience & Gas Stations,-81.38371,28.59358
d88b3446-2aab-41ef-bbe4-473b86e9b7ed,Cracker Barrel,White House,TN,37188,Restaurants & Bars,-86.67988,36.466774
229688c3-4861-4ff7-91c0-5f2fd2e8d51d,Central Bank Iowa,Storm Lake,IA,50588,Services,-95.201294,42.644604
023a97ee-637e-4059-baac-d52a60368287,Progressive,Greenville,NC,28590,Services,-77.40732,35.554146
ae6d882b-3e65-437d-9d19-5b1508712deb,Chico's Off The Rack,Vero Beach,FL,32966,Apparel & Accessories,-80.52188,27.636856
7f8d75b4-a5a2-445f-96ec-e48b7cb3ab1e,Aspen Dental,Okeechobee,FL,34974,Services,-80.82933,27.220098
4e82018f-5276-404f-a05f-380dbbdeb7e0,Bubbakoo's Burritos,Middletown,DE,19709,Restaurants & Bars,-75.73221,39.450043
25cb28f0-5694-43af-baca-a611bcdb5976,Family Dollar Stores,Medina,TX,78055,General Merchandise,-99.24637,29.795809
ecdaccd5-10f1-4163-836c-754a1fa8d31f,Marathon,Adel,GA,31620,Convenience & Gas Stations,-83.43212,31.13459
90fd76b1-5b23-426c-b013-04c584579ac3,CVS Pharmacy,Dallas,TX,75219,General Merchandise,-96.810844,32.81591
2b3e8cea-a5f7-4109-9cc8-725eddb59c13,Tractor Supply Co.,Sebring,FL,33870,Furniture & Home,-81.438255,27.469315
d0594fb8-8251-4834-a52b-d6b225b9cba4,Clear Choice,Framingham,MA,01701,Services,-71.391785,42.311188
dd5370f6-ded3-48ed-aec0-76ab15e6328b,Smart & Final,Union City,CA,94587,"Food, Groceries & Supermarkets",-122.06804,37.601643
6c338bdb-341c-4d9c-a585-17df139c6c6f,Starbucks,Albuquerque,NM,87106,Quick Serve Restaurants,-106.61747,35.080727
3d9bacff-22ae-4abe-a9cf-be43c35c9e73,Progressive,Sapulpa,OK,74066,Services,-96.112076,35.999912
258319ac-9a43-4935-b540-70102643daf2,BonWorth,Crossville,TN,38555,Apparel & Accessories,-85.01846,35.98153
f3b16783-939e-46d8-87c0-7eb145c6d4f3,Valero Energy,Tomball,TX,77375,Convenience & Gas Stations,-95.6388,30.105787
7e00d18b-0179-46cb-97e2-948ef22dbac9,Noodles & Company,La Grange,IL,60525,Quick Serve Restaurants,-87.86941,41.81589
b82124e5-9644-47ae-aed8-681bcf47d9dc,Subway,Beaver Dam,AZ,86432,Quick Serve Restaurants,-113.91054,36.897083
b4a75c78-9a52-42e1-a8a2-fa7c169dcd40,Johnstone Supply,Port Huron,MI,48060,Other,-82.446,42.95411
a8726d8a-0dfe-45b0-873f-dcbea7085333,Pizza Hut,Cañon City,CO,81212,Quick Serve Restaurants,-105.22459,38.4484
5757ca4c-dd86-4789-94ee-cd4ad09e3c51,Doubletree Suites By Hilton Hotel Nashville Airport,Nashville-Davidson metropolitan government (balance),TN,37214,Services,-86.6892,36.15967
4aea1d81-e0ac-46d8-afba-af409e734f9e,CertiFit,Kansas City,MO,64120,Automotive,-94.50747,39.135418
bce7d14a-d608-46cb-a53b-872b5828c67f,The Exchange,Sierra Vista,AZ,85613,Apparel & Accessories,-110.352715,31.560328
19207491-c452-4ada-99d2-e990ec7568b6,Walnut Creek Village,Papillion,NE,68046,unbranded,-96.065254,41.144707
fd4f0c2f-ebf8-4e06-881f-75a1641fb005,Smallcakes,West Melbourne,FL,32904,Quick Serve Restaurants,-80.66348,28.037388
d4871ac5-7a47-457a-a287-6deec8df9143,LensCrafters,Santa Fe,NM,87507,Specialty Retail,-106.01224,35.636326
391a7c01-577a-4cae-aa9f-8748566129ed,Progressive,Fayetteville,AR,72701,Services,-94.15984,36.061665
fc369496-1d0f-47b9-b961-e677f51283e2,Best Buy,East Hanover,NJ,07936,Electronics & Wireless,-74.36037,40.802765
163e8a11-f8ed-4d6d-b810-94d4227c0f40,Subway,Jackson,WY,83001,Quick Serve Restaurants,-110.79122,43.46923
18696359-2e6d-4fb1-bf2f-cb5a38a1351a,Valvoline,Dunkirk,MD,20754,Automotive,-76.661644,38.720974
fc69cf76-13ed-4286-ae80-6be5a02fd2b2,The UPS Store,Sandy Springs,GA,30350,Services,-84.34871,33.98317
b8d889a9-367a-4c5a-b214-e48d319830ce,Farm & Home Supply,Hannibal,MO,63401,Furniture & Home,-91.39671,39.727646
8828e788-599c-4932-9e83-d829f039bb8e,Maverik,Blanding,UT,84511,Convenience & Gas Stations,-109.47235,37.626404
b3cdcbd0-d54f-43ca-bbeb-bc8881376ec1,Edward Jones,Mint Hill,NC,28227,Services,-80.657616,35.174603
dda584ae-3521-4cce-b19b-bfc8b43465ff,McDonald's,Brighton,MI,48116,Quick Serve Restaurants,-83.76108,42.507137
45bb82d2-bce4-4687-a315-1c753c02ac32,Food Lion,Richmond,VA,23225,"Food, Groceries & Supermarkets",-77.497116,37.48864
49f726b0-f672-4638-9b07-a1b78a6c4173,GNC (General Nutrition Centers),Northport,AL,35473,"Food, Groceries & Supermarkets",-87.575,33.239952
f93ef57c-5af0-48bc-8849-1bbb3bb5f5fd,The UPS Store,Irvine,CA,92620,Services,-117.76143,33.71237
78b27a67-f7af-40b2-a600-59227e24d7f4,Sally Beauty Supply,Casselberry,FL,32751,Specialty Retail,-81.318504,28.628527
62c43295-7048-45a7-af24-8ce61e88c937,Concierge Pharmacy,Torrance,CA,90505,General Merchandise,-118.35202,33.815998
8375185a-ee5b-406d-b5c8-1cef9217bfb4,Chevron,Homestead,FL,33032,Convenience & Gas Stations,-80.3966,25.518564
0ec55a63-400b-498b-bf46-da8fd7c5c082,Dollar Tree,Menifee,CA,92584,General Merchandise,-117.16934,33.68389
19413ed0-b741-400c-9a56-2b89baa24196,Subway,Houston,TX,77019,Quick Serve Restaurants,-95.40156,29.754354
db4530c3-0747-471d-a62a-d84d7eb8827d,Progressive,New York,NY,11354,Services,-73.81055,40.76488
53b25a0d-faa0-437f-9f7b-66c249c96123,Progressive,New York,NY,10033,Services,-73.93488,40.85232
b143b3b2-512e-4285-a182-e144750111d2,Allstate Insurance,Indiana,PA,15701,Services,-79.14648,40.62307
57cf80a9-f16a-4df3-9e42-002129a0dc15,Milan Laser,Savannah,GA,31406,Services,-81.12169,32.00286
051f6b4e-3108-4146-8f7f-65490488de8b,McDonald's,Norwalk,CA,90703,Quick Serve Restaurants,-118.06348,33.887444
520cfb75-1808-488f-9ad7-b97e8cf786a2,Chase,Alpine,CA,91901,Services,-116.77788,32.83801
a0a54989-23fd-48e2-9d01-2bc310d88a63,IGA,York,PA,17402,"Food, Groceries & Supermarkets",-76.65151,39.985085
ef0e985e-dab1-49b3-845f-77b76d8dfa0c,Goodwill Industries,Oklahoma City,OK,73120,General Merchandise,-97.5661,35.59538
edc7312f-8b5e-4a76-8a35-7baae709dd54,Bargain Hunt,Florence,AL,35630,General Merchandise,-87.63108,34.83943
68325f8b-ea41-4904-874d-55ee4daf22e2,ARC Document Solutions,Bethesda,MD,20814,Services,-77.09638,38.988945
747af196-d9a2-48f9-8130-ed1aa8aca414,Bestway Rental,Springfield,TN,37172,Services,-86.87999,36.491356
0f2ff68d-2016-4cb1-aae2-00dcece1c14b,UPS Customer Center,Tumwater,WA,98501,Services,-122.91366,46.981384
308b5176-4a89-477b-a955-24fcc9c072a7,Starbucks,Mountain House,CA,95391,Quick Serve Restaurants,-121.5321,37.78111
67eac401-32d9-4fac-ac32-5cddc2486da8,Chevron Extra Mile,Kenmore,WA,98028,Convenience & Gas Stations,-122.233116,47.755924
e3962ce6-b7b0-4408-a47e-e2fd54a9b822,Boost Mobile,Abilene,TX,79603,Electronics & Wireless,-99.75843,32.465042
218e6e44-8b77-42b8-bfdf-c1c8f6e5983e,IdentoGO,Colfax,LA,71417,Services,-92.71047,31.523493
17bf77cd-60b8-460b-b00a-e7eb7726b506,MyEyeDr.,Cockeysville,MD,21030,Services,-76.65441,39.498444
7185dc33-6c01-4185-aff5-c6c390c0e80e,Starbucks,Torrington,CT,06790,Quick Serve Restaurants,-73.095184,41.815495
6a456d54-77cb-4b87-8871-003f39568072,Lake Michigan Credit Union,Forest Hills,MI,49546,Services,-85.53947,42.94129
9cde0226-2c74-4b82-a4db-9ed8ab4b815c,Journeys,Portland,OR,97232,Footwear,-122.65507,45.53254
aaf25c3d-b0fc-408c-81f2-316a2e6cd37b,Ulysse Nardin,Andover,MA,01810,Electronics & Wireless,-71.13963,42.65558
999777ce-0add-4c23-bf16-d8a8a7faf4e6,McDonald's,Watsonville,CA,95076,Quick Serve Restaurants,-121.75352,36.90774
07442cf4-faeb-4263-aea8-79d2de22db0b,LensCrafters,Pompano Beach,FL,33062,Specialty Retail,-80.10162,26.256748
06e148b8-01c1-4a8f-84d2-398b46d23be9,Taco Bell,Parkersburg,WV,26101,Quick Serve Restaurants,-81.54169,39.23148
3c174a2f-01dd-41ee-b5f5-72ff6b6d048d,CVS Pharmacy,Lago Vista,TX,78645,General Merchandise,-97.97538,30.474615
5dfb9ad3-cbe1-4571-8618-3d814de3a164,Carpet One Floor & Home,Starke,FL,32091,Furniture & Home,-82.107956,29.944149
d802830c-2f52-4a65-8f03-c65c3179abc4,Anytime Fitness,Long Hill,CT,06340,Leisure & Recreation,-72.06159,41.354404
32af88da-03d9-4bf8-9793-0204df118de2,United States Postal Service (USPS),Glenrock,WY,82637,Services,-105.87621,42.86103
b8c145de-fb72-4cbd-8d9d-441e3b68ac21,The UPS Store,Bloomingdale,IL,60108,Services,-88.11342,41.93809
40dcfe3d-29cd-4b91-aadf-2df7d8b31e20,BB&T (Branch Banking and Trust),Port Charlotte,FL,33948,Services,-82.13456,27.016445
9bc69a1d-f5f2-46a6-8ea2-afe8a7e14184,Dollar General,Redding,CA,96003,General Merchandise,-122.40594,40.626137
ff2a0588-3bfb-402d-b219-d882ee8e3c1a,Zaxby's,Valdosta,GA,31601,Quick Serve Restaurants,-83.32123,30.839891
dc9b84b7-103e-4f2a-ad18-54ad0e45c04c,Graybar Panama City,Panama City,FL,32405,Electronics & Wireless,-85.607956,30.21183
e62645ad-2c9a-4ff0-a799-865db8032067,Outback Steakhouse,Cookeville,TN,38501,Restaurants & Bars,-85.51054,36.137524
f966a7f6-8e68-4de8-998b-e2b9eb5ac1a7,The Meltdown,Tempe,AZ,85282,Quick Serve Restaurants,-111.96895,33.378773
b4c61ffd-7a9b-4b2d-a5b2-7bbc9ad9873a,Victoria's Secret,Milpitas,CA,95035,Apparel & Accessories,-121.89556,37.414318
3f0ee425-cfc4-4cc2-ba58-a03a19ccc48e,Maverik,Magna,UT,84044,Convenience & Gas Stations,-112.081314,40.717354
e7304564-a08e-42e5-b943-c5c92f4e4e6c,Waffle House,Sarasota,FL,34233,Restaurants & Bars,-82.45547,27.269817
f201ea22-2a94-4e4f-af98-7a5992da1100,Sherwin-Williams,Spring Hill,FL,34609,Furniture & Home,-82.51497,28.464685
cbee0e71-d03a-401a-9037-bb0a80c54547,7-Eleven,Paradise,NV,89121,Convenience & Gas Stations,-115.09257,36.100605
64c9434f-4618-432b-bf1a-b8c1c145971d,On The Run Convenience,Winterport,ME,04496,Convenience & Gas Stations,-68.84824,44.63329
6496616e-6fa0-40a3-81a0-ddb2b9ec44e3,Sherwin-Williams Industrial Wood,Little Rock,AR,72223,Other,-92.41608,34.797256
8974cf5d-dc6e-42ae-b98e-57882ed47c7b,Sunoco,Alafaya,FL,32825,Convenience & Gas Stations,-81.220634,28.50987
5ef36e99-9984-4310-b773-4076947c7e7f,Dollar General,Greenwood,SC,29649,General Merchandise,-82.09419,34.251034
e99b6844-0e93-429e-8cb8-399248d92462,Securitas,Orlando,FL,32819,Services,-81.46547,28.453255
0a7cabde-87c4-465d-9960-df1305e0f18f,William Bros Health Care,Terre Haute,IN,47802,General Merchandise,-87.41242,39.420673
f870aa5d-a210-4ed8-83a8-f5db7f140bf4,Enterprise Rent-A-Car,Little Rock,AR,72211,Automotive,-92.400024,34.753242
3fff558c-8642-4ad6-a897-ee0ac09a2e4b,76,Spokane,WA,99223,Convenience & Gas Stations,-117.35158,47.601383
28ed1972-1661-4bfd-87c0-f3a1b836ba88,Tractor Supply Co.,Blairstown,NJ,07825,Furniture & Home,-74.98299,40.987236
d3f78f5e-c16b-48bf-9f7b-a804c678bcf1,Case IH,Indio,CA,92201,Other,-116.206314,33.723854
583b7a03-5148-438c-8076-66c36a70126b,Sit 'n Sleep,Los Angeles,CA,91403,Furniture & Home,-118.45874,34.15237
7a738701-a028-484d-855f-9e2aaba4be19,Salt & Straw,Los Gatos,CA,95030,Quick Serve Restaurants,-121.98168,37.222576
0056c0c1-e0e3-49d3-86c2-aa1af08fc780,Dollar General,Sidney,NE,69162,General Merchandise,-102.971954,41.145706
d1910951-3a8f-404c-8d36-7032df687455,Popeyes Louisiana Kitchen,Quincy,MA,02169,Quick Serve Restaurants,-70.99453,42.254013
16d3c304-20d7-47ec-88d5-1524e48b29b1,U.S. Bank,Pasadena,CA,91106,Services,-118.131905,34.14481
5dd3c23a-0b04-4448-bf56-8851ceef8c5d,Kevin Jewelers,Montclair,CA,91763,Apparel & Accessories,-117.69353,34.087025
d8f5a66c-3717-4b59-82d8-266351bfc032,Claire's,Blaine,MN,55434,Apparel & Accessories,-93.261,45.127174
f18f04e8-e32d-491b-9033-8fe44f97542c,Harris Teeter Pharmacy,Arlington,VA,22204,General Merchandise,-77.0939,38.86582
b33b4e45-14d8-48c3-a371-0cefa51832ac,Starbucks,Surprise,AZ,85379,Quick Serve Restaurants,-112.36109,33.610977
7bcd6687-d865-4d2a-bb78-df8f747e938c,Crawford & Company,Milaca,MN,56353,Services,-93.65438,45.75592
530eaa34-9eee-4796-bea5-66ff50e2be24,CVS,Endicott,NY,13760,General Merchandise,-76.07049,42.110207
120447ba-a0b7-46d2-8d1f-500e344276fc,Sotheby’s International Realty,State College,PA,16801,Services,-77.86081,40.789997
98b201d8-5536-4b4a-93b3-1b5554bf448d,Dairy Queen,Kirby,TX,78219,Quick Serve Restaurants,-98.39609,29.464638
dd49374f-641f-4e45-b699-a98bcf1d417a,Lifetime Fitness,Minnetonka,MN,55391,Leisure & Recreation,-93.503555,44.94275
4144ceda-4381-4922-ab4b-cbd715d9e7a8,Home2 Suites,Austin,TX,78741,Services,-97.69052,30.22105
44041209-d84f-4fbc-b163-94517956b07f,American Eagle Outfitters,Uniontown,PA,15401,Apparel & Accessories,-79.74681,39.90743
fe3701c4-4bc6-451e-bbc0-d2187abd5c37,76,Los Angeles,CA,90003,Convenience & Gas Stations,-118.28225,33.959465
34b33cd8-b48b-475c-8105-628a57b5a287,Five Guys,Quincy,MA,02169,Quick Serve Restaurants,-71.00302,42.251736
9aa3fb2c-458d-4c27-b631-edddbff92136,Meijer Gas Station,Machesney Park,IL,61115,Convenience & Gas Stations,-89.010574,42.36656
7be53c32-5b76-4aec-8a4e-5ef7d8a38adc,Pizza Guys,Marysville,CA,95901,Restaurants & Bars,-121.588455,39.137894
1274552d-cf8c-4b5e-b0e3-d2d57af7038a,KeyBank,Trexlertown,PA,18087,Services,-75.592186,40.55193
2e50e7ff-a3d0-4e42-a0aa-b52b8d29517c,Mendocino Farms,Laguna Niguel,CA,92677,Quick Serve Restaurants,-117.71347,33.555145
635560b0-aa0f-45e8-871e-723caaaf30c0,Jersey Mike's,Niagara Falls,NY,14304,Quick Serve Restaurants,-78.974106,43.094337
7913ec53-0dba-4a5e-984f-cffc4c8cfb4f,ampm,Hillsboro,OR,97124,Convenience & Gas Stations,-122.89568,45.565285
a94eb689-ae8b-4e13-aa29-974739580a89,Family Dollar Stores,Garland,TX,75042,General Merchandise,-96.68138,32.91892
d3069a7d-b859-4a12-80fe-7661d6cb168e,Dollar General,Gower,MO,64454,General Merchandise,-94.595474,39.619267
daa6a1eb-45d3-4b6c-8b11-246634c1f3d3,Discount Tire,Surprise,AZ,85374,Automotive,-112.355286,33.64178
fcf75f48-e2bc-431b-bff9-a63f17a3b6b8,Five Guys,Greenwood Village,CO,80112,Quick Serve Restaurants,-104.89174,39.596355
77d1e23c-48d0-4dd8-9d3e-1c38c8fac22e,CEVA Logistics,Raleigh,NC,27560,Services,-78.79838,35.893467
101e2ed0-3e9a-4b64-8759-18394f5ceb18,7-Eleven Fuel,Summerville,SC,29485,Convenience & Gas Stations,-80.18489,33.001617
a6a4dfe3-5ccf-4d7c-9050-97f02f38a112,Metro Dentalcare,Burnsville,MN,55337,Services,-93.278625,44.749878
d1994ac2-1999-44f5-8714-99d191e9a671,Frost Bank,Galveston,TX,77550,Services,-94.792816,29.305416
ed590619-bb3d-4817-a976-33c53e9c5c2f,LL Flooring,Fargo,ND,58102,Furniture & Home,-96.83416,46.884327
7508b79e-dd4b-423a-a80c-fbf73b09f90c,Kwik Trip,Mankato,MN,56001,Convenience & Gas Stations,-94.012596,44.187943
ed2dec02-d500-4f0a-a63a-90144f9689be,SmartStyle Family Hair Salons,Globe,AZ,85539,Services,-110.83576,33.412853
0feb9454-cd7d-448b-9fbd-bf704221c10f,Cold Stone Creamery,Price,UT,84501,Quick Serve Restaurants,-110.793,39.59913
58927072-1870-4eae-b334-49ab0ba762dd,7-Eleven,Dearborn,MI,48120,Convenience & Gas Stations,-83.18845,42.30585
c9848ffe-8039-4d98-9f31-c79f57fbfab2,Dollar General,Murfreesboro,TN,37130,General Merchandise,-86.36389,35.82545
0a1a4096-191c-4c17-ac28-7cf59bbc23d1,Kwik Fill,Tunkhannock,PA,18657,Convenience & Gas Stations,-75.96474,41.564598
d75f23fd-b1a9-4a4d-ba56-4e699f23475c,Go Store It,Whitney,TX,76692,Services,-97.31592,31.938171
3b402ba4-0313-4f3e-bd59-9324f677161a,J.Jill,Natick,MA,01760,Apparel & Accessories,-71.38708,42.300518
bb1d5d98-bc5c-421e-ac0e-429bdb4623ba,Subway,Columbus,TX,78934,Quick Serve Restaurants,-96.53854,29.688623
62f6a778-5d40-46f0-9528-32ca3a3f13e9,State Farm,Edina,MN,55435,Services,-93.3195,44.884995
d64c9ebd-977a-4da3-86f5-13af1f2d78af,AutoZone,Milford,DE,19963,Automotive,-75.43079,38.929966
edbf826e-1fae-4c4a-9b03-e9d82802e58a,Willowbrook Plaza,Rostraver Township,PA,15012,unbranded,-79.810074,40.185055
29ace478-1e74-439e-a86a-9a7f0a5202cb,84 Lumber,Elkton,FL,32033,Furniture & Home,-81.38495,29.833729
56bd84e9-2b96-4376-916d-a7b21b89fb76,State Farm,Haledon,NJ,07508,Services,-74.182304,40.9386
58b00e28-f254-4003-86e1-b2617f316675,KFC,Chicopee,MA,01020,Quick Serve Restaurants,-72.575294,42.193115
485ef0a5-d3ce-4bd2-b355-2392a7d1cb8e,CARQUEST Auto Parts,Wiggins,MS,39577,Automotive,-89.15216,30.852362
f9965538-36e3-46f2-91e5-0823164f0b99,Sonic,Keene,TX,76059,Quick Serve Restaurants,-97.33204,32.393154
1273d84b-844b-47df-9941-a197cca2ec95,Wendy's,New York,NY,10309,Quick Serve Restaurants,-74.2169,40.521145
307cfaec-f71c-42b8-81c9-c6f55a1b8b16,Famous Footwear,DeKalb,IL,60115,Footwear,-88.72529,41.954884
adc84e70-12cc-4c1f-9dba-986777c92696,Bob Mills Furniture,Amarillo,TX,79106,Furniture & Home,-101.90714,35.190727
fc82265e-3e05-45a2-81c6-ef4354857649,KFC,Houston,TX,77025,Quick Serve Restaurants,-95.425026,29.681631
6983f94e-9c24-49fd-baae-457de5336f36,United States Postal Service (USPS),Waukegan,IL,60085,Services,-87.83165,42.365
80391cf7-f69f-4cba-bc25-5996eb56e04a,Hunt Brothers Pizza,Palestine,AR,72372,Quick Serve Restaurants,-90.907005,34.968693
98c55996-9c41-4b79-b319-731185107c53,Orange Julius,Elgin,IL,60120,Quick Serve Restaurants,-88.26305,42.028793
84b2fb70-c7cd-4465-9b68-754842d850a1,Taco Bell,Tacoma,WA,98409,Quick Serve Restaurants,-122.47554,47.222813
6b979b2b-b32b-42b0-8284-f28ba6a4b13f,P.F. Chang's China Bistro,Maumee,OH,43537,Restaurants & Bars,-83.70853,41.54724
bc6c6b34-1f0b-4dc5-a294-4d00e928dda4,Torrid,Los Angeles,CA,91324,Apparel & Accessories,-118.55578,34.237988
51e8834c-e0cd-4eea-a532-e4695bc98033,Hunt Brothers Pizza,San Antonio,TX,78264,Quick Serve Restaurants,-98.48355,29.155693
4bcced03-1e9b-4395-b650-4341e0bfc254,7-Eleven Fuel,Fort Worth,TX,76116,Convenience & Gas Stations,-97.46499,32.723415
22417450-7813-4ddb-9e4e-bb8664c000ff,Revelator Coffee,Birmingham,AL,35234,Quick Serve Restaurants,-86.8133,33.53475
d475ec69-dc42-4122-80b5-ee19545f478e,Pita Pit,Kalamazoo,MI,49006,Quick Serve Restaurants,-85.62282,42.282455
701a0a45-7bc5-4e6f-bdb8-406e4c46cb57,PNC Financial Services,Casas Adobes,AZ,85704,Services,-110.976585,32.333977
cc0aaae4-4e81-4584-8ee6-010d5550e02a,Red Roof Inn,Norcross,GA,30071,Services,-84.17995,33.93006
dd3c3872-76c3-402a-926d-89d8137848ba,Nothing Bundt Cakes,West Bountiful,UT,84010,Quick Serve Restaurants,-111.89262,40.89062
53bb5b6c-a94d-4ffe-9aae-fee0d12f9daf,Extra Space Storage,Montville,NJ,07045,Services,-74.363,40.91441
eba6d865-93c2-4957-99d5-f16cfd1d185a,Seal Master,Albuquerque,NM,87102,Other,-106.65263,35.10438
01d1831f-3f47-4a3a-a4d5-7c5da0f5b360,Fleetpride Parts,Richland,MS,39218,Automotive,-90.16547,32.243816
8a2d7077-a7a7-47f2-a4eb-bed2b6c00e4f,HomeTowne Studios,Gainesville,GA,30501,Services,-83.83517,34.288433
35d3ac57-ab4b-4e6b-9a3c-93110a5ed44e,The Shoppes At Blackstone Valley,Millbury,MA,01527,unbranded,-71.77769,42.196705
f7f8d0e7-17d8-4d5c-8e31-bd0ce07f3852,Greyhound,Boca Raton,FL,33431,Other,-80.099686,26.392178
5734ad10-0bc9-4930-bf24-607f7535c619,Dutch Bros Coffee,Farmington,UT,84025,Quick Serve Restaurants,-111.91185,40.98195
7fbc3340-2728-43be-a6bc-798e9490ca69,Metro by T-Mobile,Pinellas Park,FL,33782,Electronics & Wireless,-82.7283,27.865904
818995e4-3f69-44fb-b6cc-505fbbbbdab8,Stanton Optical,Cumming,GA,30041,Specialty Retail,-84.13459,34.181374
2a811b32-f2f4-49dd-b1b4-df2375892bcc,Exxon Mobil,Houston,TX,77070,Convenience & Gas Stations,-95.54727,29.96205
685ad4f6-a502-48b7-854e-24727ee56d39,Jackson Hewitt Tax Service,Mount Pleasant,WI,53406,Services,-87.87206,42.69128
b8225027-811a-463b-8ea1-65cf15a00412,Edward Jones,Tigard,OR,97223,Services,-122.77507,45.444782
6ba31dcd-1469-416e-af3d-ae21b3e8d9c9,Healthfirst,New York,NY,10033,Services,-73.93288,40.850845
66a7b19f-0e8a-4a27-bb9b-725d8903e63a,Menchie's,Queen Creek,AZ,85142,Quick Serve Restaurants,-111.63652,33.255196
92fcfa36-470e-4ec4-9903-9aeb91e4aad7,Caribou Coffee,Bismarck,ND,58504,Quick Serve Restaurants,-100.78598,46.797985
2fadc50d-289a-4323-aa07-b78f1e580210,Planet Fitness,Glenmont,MD,20906,Leisure & Recreation,-77.04725,39.060352
267e4466-c819-42b3-b241-c5724425c096,Hertz,Oxnard,CA,93036,Automotive,-119.14733,34.226852
12d3e64e-7791-40a4-b289-c1cefdd71d71,Pizza Hut,Huntsville,AL,35816,Quick Serve Restaurants,-86.60092,34.73949
1187f7fe-acb5-48a1-8137-350ddd68bf6d,7-Eleven,Princeton,FL,33032,Convenience & Gas Stations,-80.41211,25.517578
7b529afd-2aaf-4262-a2a3-8c227afa4a68,Krispy Krunchy Chicken,Millers Tavern,VA,23115,Quick Serve Restaurants,-76.94305,37.82889
3af7ac58-29e5-4e69-b64c-f042e2904a6b,Comfort Inn,Camp Verde,AZ,86322,Services,-111.88451,34.57451
1254ad38-4f24-4e2a-9853-6533e9719297,Great American Cookies,Athens-Clarke County unified government (balance),GA,30606,"Food, Groceries & Supermarkets",-83.43619,33.993095
4f3240c5-58ca-4c23-9c42-442374c79a63,Progressive,Austin,TX,78759,Services,-97.75244,30.393036
02bd60cf-c1d1-4551-87fe-bedab3f09db9,Extra Space Storage,Centennial,CO,80112,Services,-104.87348,39.590054
7a7b0a88-cf5c-4dce-abbd-541941bee905,Rosa's Cafe,Lubbock,TX,79423,Restaurants & Bars,-101.88695,33.475063
15122e78-9ea5-4d60-a538-de7fe0315dc0,Pressed Juicery,El Segundo,CA,90245,Quick Serve Restaurants,-118.39464,33.902817
1740c07e-8df5-45d1-b605-4b7a052e677c,JD Sports,Lawrence Township,NJ,08648,Sporting Goods,-74.6817,40.290546
8b66a306-dcd2-44bd-9c87-73e633016798,Taco Bell,Evansville,IN,47710,Quick Serve Restaurants,-87.57376,38.02004
199b3a7a-7ba1-4c06-b5d0-b36b73efe6f6,Dollar General,Sparta,TN,38583,General Merchandise,-85.4863,35.942036
d3ca57ad-19e6-4fe2-93c9-664b018a35f9,Orangetheory Fitness,Tulsa,OK,74135,Leisure & Recreation,-95.92383,36.076332
b1b93f08-fce5-4698-b559-9f41943d704b,GNC (General Nutrition Centers),Huntsville,TX,77340,"Food, Groceries & Supermarkets",-95.56757,30.708612
4c9a7bd9-838d-405c-aab1-044ce73452bf,Tropical Smoothie Café,Morristown,NJ,07960,Quick Serve Restaurants,-74.47061,40.812138
3fd9f5f7-8044-4553-9705-9491b2289867,Floyd's 99 Barbershop,Euless,TX,76039,Services,-97.101036,32.87358
7f5f4faf-ddb3-4462-8216-4806508b538c,Kwik Trip,Eau Claire,WI,54703,Convenience & Gas Stations,-91.58841,44.842606
44e6bf3a-0810-4206-990f-4a066e2c98b6,H-E-B Pharmacy,Pharr,TX,78577,General Merchandise,-98.18718,26.180164
047509f2-bcba-458c-9cfd-68c1d3345338,Walgreens Pharmacy,Columbia,MO,65203,General Merchandise,-92.354706,38.909416
b6ba2e40-9ad3-4d2d-859f-868cd77ab425,ZIPS Car Wash,Roswell,NM,88201,Automotive,-104.523766,33.442974
8bf0c336-b3c4-4918-9419-9e29e4f9330f,ServiceMaster Restoration Services,Farmington Hills,MI,48335,Services,-83.42852,42.466248
c56be961-3762-45de-b566-ac1c683ac729,Office Depot,High Point,NC,27262,Specialty Retail,-80.01772,35.982323
007d4b9b-da04-45f0-833e-e39c90d14ba0,Metro by T-Mobile,New Bedford,MA,02746,Electronics & Wireless,-70.923836,41.65621
b101c5c5-7d7e-46c3-aba5-38e33dd871f4,Dunkin',Ayer,MA,01432,Quick Serve Restaurants,-71.59081,42.561573
0a3a06f2-65fb-4da4-9fe9-37f34aedd784,Pure Barre,Seattle,WA,98109,Leisure & Recreation,-122.347206,47.625126
76dbe874-dd11-4f4f-aab4-c65540b5acd5,Atlantis Fresh Market,Shelton,CT,06484,Convenience & Gas Stations,-73.07556,41.29036
5435d23c-f37f-421e-a7a5-132f0642ae39,Edward Jones,Athens,TN,37303,Services,-84.59375,35.442493
4f50d8ec-4fc9-4948-a8b6-1d963028aa61,Firestone Complete Auto Care,Fountain Valley,CA,92708,Automotive,-117.97225,33.70167
5bb456fc-0ce9-448f-a2d4-f774d47f8494,Century Bank and Trust Company,Woburn,MA,01801,Services,-71.15143,42.48338
ef59d57e-238f-428b-895f-2ff8646ba786,WinWholesale,Baton Rouge,LA,70817,Services,-90.99726,30.35504
e7b78447-2cea-4df1-9c82-c1371514032f,Progressive,Tampa,FL,33647,Services,-82.36905,28.131618
dac5ca1a-f20d-4006-95d0-e27b7f4641b9,The Home Depot,Berlin,MD,21811,Furniture & Home,-75.1638,38.341248
91578de5-6bf8-4856-9914-a078296aec71,PetVet,Oneida,NY,13421,Services,-75.69088,43.07546
a17687e0-eac5-4403-a4e8-379caac939d7,Mother's Nutritional Centers,Riverside,CA,92507,"Food, Groceries & Supermarkets",-117.35987,33.975292
cecb9dea-be9c-4913-a733-1eed14455e31,Starbucks,San Jose,CA,95111,Quick Serve Restaurants,-121.84792,37.289745
7d08a0c7-3d88-4135-b986-45b27467747b,Amazon Distribution,Everett,WA,98203,Services,-122.24168,47.939472
e2456d41-959b-44a9-85c0-7cc54d31927b,United States Postal Service (USPS),Council Grove,KS,66846,Services,-96.489395,38.66114
5990c33e-f197-4ff1-8817-acbb80b88784,Chicken Salad Chick,Murfreesboro,TN,37129,Quick Serve Restaurants,-86.447075,35.86434
7b840b13-25b5-45b0-a12a-55b3ca09a87f,Holiday Station,Scanlon,MN,55720,Convenience & Gas Stations,-92.42582,46.702206
fa880c4b-34d9-4f29-ae2c-b87d4ccbebc6,Re Max Innovative Properties,Bristol,NH,03222,Services,-71.74684,43.5983
3d4daf62-0c82-4aa5-afd8-5a79ca062e3f,San Antonio,San Antonio,TX,78217,Furniture & Home,-98.407074,29.519758
cfab94fc-b381-485d-b954-50e2b60831cc,CVS,North Adams,MA,01247,General Merchandise,-73.11096,42.70108
56bca906-f73b-4652-a080-2b5d9eff21ec,Hamilton Road Retail Development,Columbus,OH,43125,unbranded,-82.88429,39.896526
4488aaac-66ae-4447-9267-a72b6d852285,Dollar General,Norman,OK,73069,General Merchandise,-97.4596,35.228237
6d0eb0e2-8ebc-4d1e-ac5e-70b68fd66830,Exxon Mobil,Philadelphia,PA,19124,Convenience & Gas Stations,-75.06807,40.013996
27524745-f76d-4527-82ee-2f10061b7c8e,Shell Oil,Dallas,TX,75229,Convenience & Gas Stations,-96.897125,32.896416
e33c85fc-57bd-4bd9-8e2a-0cc744a3e87b,Fast Auto Loans Virginia,Rocky Mount,VA,24151,Services,-79.87878,37.033512
923931bc-9670-47a9-90a1-66387ff8216c,State Farm,Westerville,OH,43082,Services,-82.93266,40.13733
28db074c-d038-4880-bd0d-6953a4f1cbf1,Starbucks,Thousand Oaks,CA,91360,Quick Serve Restaurants,-118.867805,34.20838
a6482f7c-5733-4730-85cc-ac5aa7403367,Origins,San Diego,CA,92173,Specialty Retail,-117.03444,32.548927
2d3dc25b-eca1-44a7-b0d4-ac8c0ac5ccd2,United States Postal Service (USPS),Nashville-Davidson metropolitan government (balance),TN,37210,Services,-86.744865,36.141323
329da0e6-8ccd-4349-8106-246caa5dde54,Pizza Twist,Irving,TX,75039,Restaurants & Bars,-96.9611,32.8963
a84e5851-aba8-4c06-942f-e5c30d0e3cc1,Safeway Fuel Station,Seattle,WA,98118,Convenience & Gas Stations,-122.28979,47.569424
a08fde18-9d39-4340-a1ee-67eb940faac2,Cricket Wireless,Yakima,WA,98903,Electronics & Wireless,-120.48435,46.56685
e010ac04-bfa3-449d-88ce-b13467ce20c5,Victoria's Secret,Weatherford,TX,76086,Apparel & Accessories,-97.787674,32.733562
cafa25d1-f3d4-40f3-9c4e-926acfb7a41b,Comfort Suites,Weston,FL,33326,Services,-80.36767,26.092766
1f6e3952-6cef-4ab2-b321-6e341b1e39c2,Marathon,Lexington,MI,48450,Convenience & Gas Stations,-82.52796,43.21249
39a1a5a8-268d-4356-ac39-0bc905f50619,Express Care Pharmacy,Allentown,PA,18104,General Merchandise,-75.49683,40.60352
e48f64db-8a48-4425-af95-498d59e92aac,Quiznos,Yakima,WA,98908,Quick Serve Restaurants,-120.584145,46.600315
309e1801-75b9-46f2-951d-60c90702e20a,Avis Rent A Car,Osseo,MN,55369,Automotive,-93.39646,45.11014
b3a8b738-ebbf-468d-974d-04be3db10677,Suzuki,Oshkosh,WI,54901,Automotive,-88.57651,44.05321
3bc9cce0-154b-4d4a-9029-f095d71da09f,Wendy's,Bogalusa,LA,70427,Quick Serve Restaurants,-89.865204,30.787292
28e63475-a22f-4025-a8d2-d134c310c333,Americas Best Value Inn,Fort Myers,FL,33907,Services,-81.87133,26.572432
799677b3-c76f-4018-884e-fb6f79b4a3cc,Domino's Pizza,Pensacola,FL,32503,Quick Serve Restaurants,-87.17996,30.424782
2be7fa6d-7350-4f97-bdf4-90d894eb8843,7-Eleven,Brentwood,NY,11788,Convenience & Gas Stations,-73.23283,40.806076
0605537e-5467-4c59-b584-2630c0578e0e,Allstate Insurance,Fort Pierce South,FL,34981,Services,-80.36536,27.425253
2b9c4e84-f29c-4787-9e98-f2bbffeec627,Papa Murphy's,Redmond,WA,98052,Quick Serve Restaurants,-122.11112,47.670197
d99e3b8e-d775-4744-b9e1-be30a62b0078,Wendy's,Lawrence,KS,66046,Quick Serve Restaurants,-95.24261,38.94256
5095e29b-b009-4054-87a6-05cfbb270e60,Chevron,Woodway,TX,76712,Convenience & Gas Stations,-97.20221,31.506027
ea159c08-066f-43f4-83e2-b9f1be391326,JCPenney,San Antonio,TX,78238,General Merchandise,-98.62172,29.468102
7da553c6-e440-44bf-bcee-dfc387b270bf,CVS,La Porte,TX,77571,General Merchandise,-95.08752,29.663752
a224777f-98bf-4b67-9fcc-a1ff204dbb72,True North Energy,Fox Crossing,WI,54956,Convenience & Gas Stations,-88.49384,44.215027
e17efde0-12ce-4d57-bfbc-bf5a6ac90a60,7-Eleven,Bradenton,FL,34209,Convenience & Gas Stations,-82.633804,27.495466
7fb2385d-d339-4332-8d52-be2aa9c93fe7,PetVet,Hammond,LA,70401,Services,-90.51723,30.503717
5806c4b6-264c-48de-a500-924ae24ed468,Tropical Smoothie Café,Bartlesville,OK,74006,Quick Serve Restaurants,-95.94006,36.750313
8b7556d0-486f-4d3c-bd87-7d21cee15a16,Sherwin-Williams Industrial Wood,Waynesboro,PA,17268,Other,-77.56808,39.750256
70998357-368b-4cda-bef1-69d3823e8ac7,Family Video,Murphysboro,IL,62966,Services,-89.341736,37.763977
2f70254b-3c3a-4183-bb8f-327062c477e2,United States Postal Service (USPS),Thorne Bay,AK,99919,Services,-132.53249,55.687836
eca52390-bee0-40a9-bf0e-28f3b2374aa2,Steak 'n Shake,Harrodsburg,KY,40330,Quick Serve Restaurants,-84.83668,37.73524
deb1760f-9a23-4947-9f90-e8088d3182b7,W. W. Grainger,Dayton,OH,45414,Other,-84.190414,39.82093
d3b56675-faad-43d3-9b40-e7911df25aab,Public Storage,Downey,CA,90241,Services,-118.11783,33.921284
d5aa0dcb-91ff-48c4-ac8d-d5482bb562b8,Dollar General,Greenville,MS,38703,General Merchandise,-91.03715,33.408325
8a3da7e2-aeda-4528-8a89-5e911204708c,Hearing Life,Reed City,MI,49677,Specialty Retail,-85.510956,43.87621
8a310b64-cc9d-4350-a765-543ed36cc860,Starbucks,Carrollton,TX,75006,Quick Serve Restaurants,-96.919975,32.96769
31702fc0-a495-4e59-966a-6e4dfdb405eb,H&R Block,New York,NY,11215,Services,-73.985916,40.668755
d6a63ebc-7da9-407a-bf26-0da314d41104,Little Caesars,Port Lavaca,TX,77979,Quick Serve Restaurants,-96.63449,28.628996
eb68cb87-8248-41b2-b6b0-0139dc933654,Taco Bell,Fullerton,PA,18052,Quick Serve Restaurants,-75.487144,40.635696
d77636bd-8e62-4783-9f31-6057c590d385,United States Postal Service (USPS),Colome,SD,57528,Services,-99.71498,43.26134
e7f6e3a0-22f6-4be1-87f0-04f1ce209206,Best Western Plus Royal Oak Hotel,San Luis Obispo,CA,93405,Services,-120.677956,35.263657
c5e663d7-2b20-47f3-87d2-56976ae2c7f0,Wow Bao,Pearl,MS,39208,Restaurants & Bars,-90.13406,32.26835
c04a5f76-670b-4ac8-9d30-f8816a0ff9e2,Super Mex,Huntington Beach,CA,92649,Restaurants & Bars,-118.06349,33.712933
4dd32b37-4c02-4616-a99f-4839e481b774,Blue & Gray Health Mart Pharmacy,Hanceville,AL,35077,General Merchandise,-86.77938,34.074497
2807ce23-f1a0-4f66-b4bf-c66a41a8f503,7-Eleven,Edmond,OK,73034,Convenience & Gas Stations,-97.45993,35.653233
c69d1890-775c-47bb-9e5e-66b3f699ded1,Pep Boys,Jacksonville,FL,32223,Automotive,-81.63332,30.138365
01b0a681-df91-4a80-acf5-07500dbe826e,O'Reilly Auto Parts,Childersburg,AL,35044,Automotive,-86.361916,33.284195
1f81220f-df38-4b5d-bea6-8b79043fd828,Ambest Fuel Stop,Leedey,OK,73654,Automotive,-99.34702,35.8744
8a63d5ff-b6a2-48a2-a8fc-a79a29021e82,Golden Corral,Ontario,OH,44906,Restaurants & Bars,-82.59103,40.76701
8929423c-0937-4eae-8431-6e0c84bfe7b8,Applebee's,Albemarle,NC,28001,Restaurants & Bars,-80.1784,35.343567
285860ab-c0bf-4792-9737-57b6f8018330,Everglades Equipment Group,Belle Glade,FL,33430,Other,-80.6825,26.704344
49ceb2fa-57de-48e3-b7ff-07bc198cceda,Domino's Pizza,Rockwood,VA,23236,Quick Serve Restaurants,-77.56971,37.44775
910a36bb-ace9-4392-9f0e-edf1c7c7ca51,AAA / CAA,Huntsville,AL,35801,Services,-86.58943,34.709595
2ca2689f-c5b9-4b5c-b60b-89623f63e99a,Chipotle Mexican Grill,Huntington Beach,CA,92647,Quick Serve Restaurants,-117.98969,33.72684
dd9df32f-4903-4d85-a224-1ccb71b60ea2,McDonald's,Cranston,RI,02921,Quick Serve Restaurants,-71.50022,41.789074
f2861bcc-b138-41c3-9639-5abc8a1355cf,Pelican's SnoBalls,Marietta,GA,30068,"Food, Groceries & Supermarkets",-84.50455,33.95352
4d5262d1-3c4f-4849-a82b-b38bc3625e80,Rite Aid,New York,NY,11367,General Merchandise,-73.815506,40.729134
097fbc7b-f7a5-43eb-8b91-fed80371942b,Metro Dentalcare,Richfield,MN,55423,Services,-93.28618,44.882835
23d5c848-d879-46fb-bc8b-de2d7093be61,Logan's Roadhouse,El Paso,TX,79936,Restaurants & Bars,-106.309456,31.726501
4e0a3077-6b42-4672-a994-59af6766d967,Papa John's,Nicholasville,KY,40356,Quick Serve Restaurants,-84.56733,37.895702
2f67e40d-4a81-45e1-a570-94a1167fa850,Auntie Anne's,Lebanon,OH,45036,Quick Serve Restaurants,-84.15034,39.411514
c7b3ac5b-8236-45aa-874f-b73621478723,Pizza Hut,Fort Lauderdale,FL,33306,Quick Serve Restaurants,-80.11493,26.168293
667a472b-ca0f-4ac6-a40d-c83d2b2ec8eb,Tandy Leather Factory,Springfield,MO,65807,Apparel & Accessories,-93.29373,37.181374
2bda6dc2-7c72-41f6-9e29-963d593c4fee,Spring Hill Plaza,Spring Hill,TN,37179,unbranded,-86.91799,35.77545
436f7537-fcb5-4e22-87cb-1f16fe152464,United States Postal Service (USPS),Grantham,PA,17027,Services,-76.994354,40.155647
e96dbbea-22ae-4b06-9b40-2a5b6ffee0ad,Coldwell Banker,Wayland,MA,01778,Services,-71.367744,42.365074
ad4d6871-bdd9-446b-9a86-c53ca57beb9a,Happy State Bank,Fredericksburg,TX,78624,Services,-98.87915,30.267292
0519b4c6-9ac3-47ca-9169-d335a7de1d9d,Belk,Prattville,AL,36066,General Merchandise,-86.39586,32.465126
24cf9d1c-0761-4960-bf14-8e7252f117e3,McDonald's,Erie,PA,16504,Quick Serve Restaurants,-80.04306,42.12307
ee4d0f38-6bcb-425c-971a-e4ad898a7f48,Belmont Shopping Center,Apollo Beach,FL,33573,unbranded,-82.33608,27.769476
58f89105-7784-42e0-99f7-8d656ac6d30c,Jackson Hewitt Tax Service,Fallon,NV,89406,Services,-118.79075,39.47465
6e284ca0-fb56-44f2-9a9a-4f360d12baad,Tide Dry Cleaners,Fort Worth,TX,76129,Services,-97.36138,32.71111
889c4eb4-f66d-4c97-b800-14042c297bc1,AutoZone,Murrysville,PA,15632,Automotive,-79.66263,40.423286
53912f7d-ada9-4860-b476-7c22872c4452,TD Bank,Fort Lauderdale,FL,33309,Services,-80.151726,26.203844
ea83b5c0-b58d-41fb-9d3f-ae5e8043411e,NAPA Auto Parts,Ithaca,MI,48847,Automotive,-84.586655,43.29228
d0ab223c-67e1-46e4-8c8c-29d8df28865e,Pet Pros,Seattle,WA,98116,Specialty Retail,-122.384415,47.560516
be15ec1e-7dbc-42d9-8ff4-501607801322,Caliber Collision,Naples,FL,34104,Automotive,-81.766495,26.164392
0e32dcdf-58d3-4b9f-8a71-af662907a071,Sonic,Kirkwood,MO,63122,Quick Serve Restaurants,-90.40627,38.56625
1f87a3ff-ab67-438c-a7aa-2a8b88e16c7a,Red Robin Gourmet Burgers,Twin Falls,ID,83301,Restaurants & Bars,-114.45866,42.59388
76a1933f-a1a7-4ab1-9607-5b6d4766c445,Farmers Insurance Group,Simi Valley,CA,93063,Services,-118.73143,34.279343
4ede0411-6d4f-4100-90d7-b92554f99477,Love's Travel Stops and Country Stores,Sweetwater,TX,79556,Convenience & Gas Stations,-100.44058,32.45115
78e58b41-bd80-40fb-8f19-ccd62a2d18de,The Meltdown,Houston,TX,77379,Quick Serve Restaurants,-95.530716,30.01769
37f418cc-a59b-4dbc-97e6-d56aed051d09,The Melting Pot Restaurant,Duluth,GA,30096,Restaurants & Bars,-84.135216,33.9572
1e66280a-1df4-4e1e-9a06-4d7017ff68e4,Walmart Supercenter,Osceola,AR,72370,General Merchandise,-90.01221,35.700317
4e20c14b-ca6a-4101-8221-ed5dd019586a,McAlister's Deli,Chattanooga,TN,37343,Quick Serve Restaurants,-85.24238,35.132275
21a00b0c-7c02-47dd-b251-3bcde1c589ae,Pomp's Tire Service,Bay City,MI,48708,Automotive,-83.88794,43.59465
70d1c7ef-297a-43b9-98ab-96b1215642be,Progressive,Lakeville,MN,55044,Services,-93.24262,44.64585
688fd1e1-fabc-4e40-ba55-d909874bfb1e,Goosehead Insurance,Louisburg,KS,66053,Services,-94.68161,38.6204
de31bae9-63f3-4b07-8205-53970f583dcb,Holiday Inn Express,Abilene,TX,79601,Services,-99.69488,32.476322
e851f69c-ab95-496d-9b51-9457335111b8,Petco,Napa,CA,94558,Specialty Retail,-122.299065,38.321507
6623d4e2-1a36-4f82-8e38-6d4e608d5731,State Farm,Houston,TX,77027,Services,-95.451454,29.74586
33605005-f447-47fb-b90d-fdd70c2202b6,Steve Madden,Glendale,CA,91204,Footwear,-118.258835,34.14409
75dc1b50-29dc-49fa-bb4b-bea84c805d23,Hunt Brothers Pizza,Little Rock,AR,72209,Quick Serve Restaurants,-92.30757,34.68872
b6236d03-7caf-4565-b433-203eb815cc18,Publix Super Markets,Dania Beach,FL,33312,"Food, Groceries & Supermarkets",-80.18486,26.061497
87b892b9-bf85-4760-a3ca-6b99d5a66408,Kibble Equipment,Blue Earth,MN,56013,Other,-94.10045,43.66469
08249323-79d5-49b5-8052-c73c3cb07382,CITGO,Lakeview,GA,30741,Convenience & Gas Stations,-85.241974,34.985294
4cf3c4d9-0087-4776-b526-eac0bd259334,Steak 'n Shake,West Plains,MO,65775,Quick Serve Restaurants,-91.87545,36.71659
039fd2c3-2317-46fb-bc5b-0b23b6018baf,Krispy Krunchy Chicken,Moyock,NC,27958,Quick Serve Restaurants,-76.195625,36.550278
56e39a83-44d4-4b6c-877e-3b9d5f74ea1a,Dollar General,Bluefield,WV,24701,General Merchandise,-81.146324,37.307682
cb8ae4bc-6db5-43a9-a612-294a44a3e4d3,Progressive,Blaine,MN,55449,Services,-93.19016,45.133007
7fe8fad8-4931-4af6-98d7-716972203925,Bank of the West,Portland,OR,97210,Services,-122.698326,45.529522
be3fb7ab-a817-405a-8b17-bab6f0c0f543,Walgreens Pharmacy,St. Paul,MN,55106,General Merchandise,-93.065575,44.976887
e64ef23a-efa3-499c-9097-71f7f6072281,Shiekh Shoes,Hayward,CA,94545,Footwear,-122.10214,37.65119
7d04d85c-2c8b-4549-9739-bd6c05411de9,Marco's Pizza,Richmond Hill,GA,31324,Restaurants & Bars,-81.27838,31.909367
f96827fe-0966-421d-9e41-93dfa17dfe5c,E-Z Mart,Tishomingo,OK,73460,Convenience & Gas Stations,-96.66909,34.230347
6e691dea-94b1-4c46-9eec-8a99de390c73,Old National Bank,DeForest,WI,53532,Services,-89.343376,43.241524
f9a31f30-9c21-4d34-855a-f0f32fd2f5d1,Monarch Dental,Cedar Hill,TX,75104,Services,-96.934975,32.60384
19bb644d-4084-4f83-9ece-741290d797e5,Budget Rent A Car,Columbus,GA,31909,Automotive,-84.93973,32.518337
a63c7cb2-635c-4871-89c5-0964a8b370bb,Farmers Insurance Group,Oxnard,CA,93035,Services,-119.22933,34.17523
d23b4772-38de-499a-a265-57797298428a,Dollar General,Lakewood,WI,54138,General Merchandise,-88.52826,45.30189
1c19b7e5-9772-4071-b353-2181daf370cb,Travelodge,Gallipolis,OH,45631,Services,-82.23975,38.844654
f3a389e9-6d85-47a7-8852-1bf468395366,Allstate Insurance,Viera,FL,32940,Services,-80.694626,28.230892
6e672647-8475-4e63-84f9-7dc8f8d23ca2,Church's Chicken,Tulsa,OK,74136,Quick Serve Restaurants,-95.95735,36.062656
7d79b75b-64b9-438d-b16a-2157b1689eba,CVS Pharmacy,Williamsburg,VA,23185,General Merchandise,-76.73172,37.255013
ab5fbd30-24b7-4462-9969-45f11fd95185,Mighty Quinns BBQ,New York,NY,11211,Restaurants & Bars,-73.9656,40.71418
6cc6d9bd-e2d2-4d02-8647-a4aa1e4a8bc5,Hilton Garden Inn,Wesley Chapel,FL,33544,Services,-82.374306,28.18585
583110a1-2037-4527-8363-21242cd3c90c,Panda Express,Ledgewood,NJ,07852,Quick Serve Restaurants,-74.650215,40.874245
93fd8323-8cae-4924-9408-6765daa83e94,BP,Marietta,OH,45750,Convenience & Gas Stations,-81.468765,39.41674
6c7774e3-fe8b-46ca-acaa-13c906dc8cc8,Barnes and Noble,Newington,NH,03801,Specialty Retail,-70.798225,43.094814
74983b32-020c-4b56-ba9f-267717b34aa3,Little Caesars,Carson,CA,90745,Quick Serve Restaurants,-118.281395,33.832054
eca1f033-fbe7-4c78-97da-69c536f56af4,AutoZone,Crestwood,IL,60445,Automotive,-87.73753,41.64903
06752b7a-6898-4a0a-9696-4fef0e9298ec,TruGreen,High Point,NC,27410,Services,-79.941986,36.057934
c8510b68-4181-496e-85b1-f14070c24164,Advance America,Escondido,CA,92027,Services,-117.066,33.129826
8fc8f444-cde5-4aa1-9748-9b04a46cc3da,Edward Jones,Mount Prospect,IL,60056,Services,-87.93869,42.063576
a8592863-6b14-40d8-94fb-35a2a2326073,US Storage Centers,San Antonio,TX,78207,Services,-98.51699,29.412512
3f0178a8-6340-49e9-91a6-c70757b91d1b,Progressive,Jeffersontown,KY,40223,Services,-85.57469,38.234947
91a06693-15a1-4a0f-8650-3cfa9378cf3a,Circle K Gas,Ken Caryl,CO,80128,Convenience & Gas Stations,-105.10941,39.56429
cca386f7-1c76-4791-8d33-ae371f524c6d,State Farm,Phoenix,AZ,85006,Services,-112.04795,33.47905
81b36147-5449-4294-96b2-a7778adb55b7,Crossfit High Caliber,Troy,MI,48084,Leisure & Recreation,-83.15255,42.554585
6a8f6c78-4855-4387-8fa6-01ba68db2fe9,Boost Mobile,Philadelphia,PA,19128,Electronics & Wireless,-75.21587,40.034374
c4b9877c-4dfb-4af6-a019-2fe14038a440,Pleasant Run Towne Crossing,Cedar Hill,TX,75104,unbranded,-96.93585,32.60236
fec1d665-73ac-4653-a2ba-6c913e6946e1,Texaco,Covington,GA,30016,Convenience & Gas Stations,-84.016266,33.54703
6ebbe596-0ebf-4495-9014-74cb3d83ed37,TD Bank,Darien,CT,06820,Services,-73.45493,41.09142
5bc13937-2ee1-4233-a4ac-4aaa55e8c59e,T Mobile Authorized Retailer,Poughkeepsie,NY,12601,Electronics & Wireless,-73.92051,41.626556
77f91c25-3f87-4ca5-8036-84c31d43b042,Taco Bueno,Brownsville,TX,78520,Quick Serve Restaurants,-97.51447,25.96887
6fd832be-a5a1-4e4f-8743-22524d991472,Edward Jones,Newton,KS,67114,Services,-97.34462,38.05003
573335ab-b4ae-4c02-a475-e1f025d936aa,Progressive,Whitinsville,MA,01588,Services,-71.64478,42.12423
0598bfee-2e1d-49ca-b3e6-a25033c625bf,Domino's Pizza,Euclid,OH,44123,Quick Serve Restaurants,-81.5151,41.61555
7a1da046-fefc-4d2a-8676-eb46784f8d47,The UPS Store,Chapel Hill,NC,27514,Services,-79.05832,35.967327
6d68ed04-543d-493d-9c67-5a79667bdf74,El Rancho Supermercado,Austin,TX,78723,"Food, Groceries & Supermarkets",-97.69057,30.320215
1f604a59-6b8e-4d75-900e-59a56fc31132,AT&T,Los Angeles,CA,91326,Electronics & Wireless,-118.56648,34.275524
ce496202-095d-4f73-b981-8ce32ef39606,AT&T,Chula Vista,CA,91910,Electronics & Wireless,-117.08845,32.650833
98766eb7-064d-4295-9e38-951e96d58de2,Express Oil Change,Overland Park,KS,66221,Automotive,-94.6894,38.884346
6a9f6c16-ec60-4af3-86cc-d5be8dd4decf,Talbots,Charleston,WV,25301,Apparel & Accessories,-81.63883,38.354523
0a2a96d1-18d0-4560-ae0b-f92a08657738,Mcdowell South Inc,Jackson,MO,63755,Automotive,-89.61275,37.3551
b01b7879-ea68-4c0c-addc-b84d86c8ad04,Jiffy Lube,Plainedge,NY,11714,Automotive,-73.487686,40.724926
4d62b329-d457-40bd-9611-a64201cd70d1,Great Clips,Phoenix,AZ,85032,Services,-111.97947,33.624676
058c5443-1be2-4ef9-a0f7-2bd1047daee2,Kroger Fuel Center,Nashville-Davidson metropolitan government (balance),TN,37216,Convenience & Gas Stations,-86.733025,36.21
b849af0a-2786-4c89-b23b-9adec8f7b97a,Quality Inn,Meriden,CT,06450,Services,-72.77092,41.573387
f953127b-c7ce-48e8-b36d-74dc92acf9b9,Charley's,Pompano Beach,FL,33062,Quick Serve Restaurants,-80.1012,26.245493
41f5bc43-0890-4cf3-b8a7-590f91140d40,Hungry Howie's Pizza & Subs,Canton,OH,44705,Quick Serve Restaurants,-81.34597,40.83223
f86557aa-66db-4a3a-8fff-328cb103d8a4,Dollar Tree,Lakewood,CA,90713,General Merchandise,-118.126205,33.861263
03b7beb6-4cee-43d4-8c34-0de02c1753d9,Dollar General,Bloomington,IL,61701,General Merchandise,-88.96683,40.489502
331fbe5b-6409-4e0a-b96e-d7342162dbe1,PODS,Brooklyn Park,MN,55428,Services,-93.3835,45.08218
644c1353-7931-4d43-922a-802105e16dd0,Alaska Commercial Company,King Salmon,AK,99613,"Food, Groceries & Supermarkets",-156.67216,58.683697
9c213428-e649-4877-96ac-aa8bd3a1f6ae,CVS,Houston,TX,77099,General Merchandise,-95.57095,29.674994
2ef07a48-280e-4e6e-92d9-524d964c3f30,Circle K,Chelsea,AL,35043,Convenience & Gas Stations,-86.631294,33.347744
847b971e-b753-435c-8875-9e3430163463,Econo Lodge,Worthington,OH,43085,Services,-83.01513,40.10751
3e373057-6b38-498e-8ab1-e0c1090e6cbd,Dogtopia,Albuquerque,NM,87120,Services,-106.70306,35.11887
1f734b31-f629-428d-92d8-0b05e4d0fd6c,Dunkin',Wheaton,IL,60189,Quick Serve Restaurants,-88.10434,41.83198
f93d51ff-abc8-4a1e-8d1b-bed6655b0121,Extra Space Storage,Austin,TX,78730,Services,-97.83783,30.39146
5ca77738-ecfe-48a9-9d57-e17d6731947a,Kirkland's,Byron Center,MI,49315,Specialty Retail,-85.67137,42.808018
58057f5c-7fe1-4561-87e1-c4c9155b89c6,United Way,Ardmore,OK,73401,Services,-97.12905,34.172485
189f7d25-429e-4cc2-8ec4-8f434f5daf9e,BP,Wrightstown,WI,54180,Convenience & Gas Stations,-88.16147,44.325813
2304a587-8c2d-4c46-90a9-0826521ce42a,Caliber Collision,Boulder,CO,80303,Automotive,-105.21936,40.01539
1ad46d83-6e1d-404b-92f8-7b5e8c040397,MyEyeDr.,Milwaukee,WI,53221,Services,-87.94825,42.948307
999aba1b-c3a5-45f2-8054-2e9e6ddc871f,Huntington National Bank ATM,Columbus,OH,43212,Services,-83.027626,39.98627
b8bf86db-1a14-4296-a284-e9393e5d0725,Rite Aid Pharmacy,Fairmount,NY,13031,General Merchandise,-76.273544,43.039825
8b3f56e2-5411-498c-be44-04a821138a99,Exxon Mobil,Montrose,CO,81401,Convenience & Gas Stations,-107.89082,38.49134
634c8a5c-3378-4c98-8415-7f6ed947306a,VIP Petcare,Glen Ellyn,IL,60189,Services,-88.07762,41.858654
8048de6a-ffe0-4b4c-8a2f-45ce37ea734f,Best Western Premier Mariemont Inn,Mariemont,OH,45227,Services,-84.37533,39.14546
77145e9b-25da-4ff3-a627-fa3a45e14c9d,Anthem Marketplace At Merrill Ranch,Florence,AZ,85132,unbranded,-111.484314,33.06182
c808ebd4-97f9-4081-af27-37445486b3c7,Johnstone Supply,Jefferson City,MO,65109,Other,-92.223465,38.59101
2b493046-9a73-403a-a7a4-56daee673a03,Altos Plaza,Miami,FL,33135,unbranded,-80.23048,25.770332
dc679f4c-2efd-4282-bbb6-0ed2096a65f8,Publix Super Markets,Columbia,SC,29205,"Food, Groceries & Supermarkets",-81.00343,33.987164
55a6b324-5a16-40e6-9708-a5daf420c247,Circle K,Gas City,IN,46933,Convenience & Gas Stations,-85.61062,40.48771
8b6d3ce2-c6db-4315-96d9-15619c7a7f93,Chemical Bank,Chicago,IL,60620,Services,-87.62787,41.73512
3a6b0941-bb61-4331-b98d-ade9d5b4e462,The Home Depot Rental,Manchester,NH,03103,Services,-71.44594,42.961807
14c729ab-4a9b-48b6-999d-0733bd7e2313,Edward Jones,West Point,VA,23181,Services,-76.79765,37.533535
a05fda6b-c950-4587-ad2b-f75628925dbf,The Home Depot Rental,Clearwater,FL,33764,Services,-82.73437,27.958406
984fad57-ed55-4607-ae7c-871e1f52a778,RightSpace Storage,Wimberley,TX,78676,Services,-98.10406,30.041445
af2318e0-c945-4348-bbb6-14acbcc24af8,Progressive,Ascutney,VT,05089,Services,-72.41121,43.405483
9bc76e79-f9a5-473a-b22f-35684abac058,Grimaldi's,Frisco,TX,75035,Restaurants & Bars,-96.800674,33.100327
64b1b28e-9139-4f01-b04d-9ce92f99697e,T Mobile Store,Groesbeck,OH,45239,Electronics & Wireless,-84.58675,39.223354
992735dd-1c55-4b92-ad04-c9de5f072376,Mobile Mini,Manassas,VA,20109,Services,-77.55863,38.787743
91cec07e-728e-4497-8ad6-0325e74a8be0,Fedex Office Print & Ship Center,Sugar Land,TX,77478,Services,-95.6048,29.619608
d2b7f593-338d-462e-a8f8-92617c60d3b9,Fedex Ship Center,Charlotte,NC,28211,Services,-80.793655,35.193142
20539e6c-a35f-4250-89a2-7a48f64281bc,Sheraton Hotels & Resorts,Rosemont,IL,60018,Services,-87.88349,41.997272
744a160e-3cee-4622-8328-b3a734e974c2,State Farm,South Jordan,UT,84095,Services,-111.93898,40.566536
0d44d292-64a9-483d-9bcd-ec7f2d798fd5,Dollar General,Dickinson Center,NY,12930,General Merchandise,-74.56334,44.74757
59839c8c-6ccc-41ae-9492-4cfa4cf23b8b,Pizza Twist,Concord,NC,28027,Restaurants & Bars,-80.733,35.37246
eaf507fd-d945-43aa-9d7a-41974da631ee,State Farm,Augusta-Richmond County consolidated government (balance),GA,30909,Services,-82.08551,33.464123
1f33f421-3375-4628-a067-1bedf4c03aef,Whit's Frozen Custard,World Golf Village,FL,32092,Quick Serve Restaurants,-81.48963,29.960403
361c01e5-4495-4c87-b963-e7be29678344,Penske Truck Rental,Dallas,TX,75211,Automotive,-96.86447,32.756157
882c2f7e-859a-4575-b533-5e762264958b,Lifetime Fitness,Boca Raton,FL,33431,Leisure & Recreation,-80.11603,26.394812
9870a3b9-dc46-4170-8b35-efb4c47ec590,T Mobile Authorized Retailer,Bothell,WA,98011,Electronics & Wireless,-122.210075,47.764965
3efd5765-a1dd-4c0a-834b-c52b2b933cbe,Genki Sushi,Kapolei,HI,96707,Quick Serve Restaurants,-158.09138,21.329502
f952eaeb-658f-4736-8fae-bd21601ac902,Chipotle Mexican Grill,Stuart,FL,34957,Quick Serve Restaurants,-80.26763,27.234772
510ec004-52ea-4b74-9d96-cf94b44484db,IHOP,Colorado Springs,CO,80909,Restaurants & Bars,-104.76698,38.84058
eda5ce74-f541-46ff-a403-267cbe641971,Metro Dentalcare,Lakeville,MN,55044,Services,-93.25067,44.657875
b0ec30ae-ba28-4b1e-b23d-51235f8f3c68,Abbey Carpet and Floor,Hattiesburg,MS,39402,Furniture & Home,-89.48223,31.312971
20973141-1006-4535-ae11-1d9ca1683e6f,KFC,Taylor,MI,48180,Quick Serve Restaurants,-83.27015,42.232525
1be8c897-28f4-4572-b472-8f13dd66c3fd,Crumbl Cookies,Santa Maria,CA,93454,Quick Serve Restaurants,-120.42857,34.92378
01ce1d3f-7c5d-45f3-ad86-bef0a5e078e9,Jacksons Food Stores,Bostonia,CA,92020,Convenience & Gas Stations,-116.96187,32.81873
115a3580-78e4-4021-9cd7-05060ceaad1f,Custom Ink,Braintree Town,MA,02184,Apparel & Accessories,-71.03044,42.22044
4969b5a5-1a39-430c-a78c-3fc375f62d3f,Five Guys,Sumter,SC,29150,Quick Serve Restaurants,-80.38656,33.957077
c76968a1-12b1-4a71-8d6e-83050e5e41af,Tropical Smoothie Café,Enterprise,NV,89123,Quick Serve Restaurants,-115.17155,36.052204
13a53cb3-8054-41cc-b9ad-1a78b29849db,Banc of California,Placentia,CA,92870,Services,-117.843185,33.878284
8a29d6e5-94cd-4cf2-adb1-51c9b2fe6ce8,Alton Square,Irvine,CA,92604,unbranded,-117.78883,33.670906
ff990d5e-a4e0-495c-a4fe-d04e9c316458,PlainsCapital Bank,Lubbock,TX,79407,Services,-101.95618,33.553165
5f554a31-dbdb-4b18-9e30-ec12f9f07c0f,Precision Door Service,Nicholasville,KY,40356,Other,-84.5442,37.934296
aff06371-614b-4927-82a8-87ddc5eb618b,Progressive,Amenia,NY,12501,Services,-73.55692,41.850433
b343a479-4d7e-418b-84e0-126581825ca4,Kum & Go,Muskogee,OK,74403,Convenience & Gas Stations,-95.34107,35.74031
ba567844-a146-435a-8238-13f930f7c8e4,Bonchon,Fredericksburg,VA,22401,Quick Serve Restaurants,-77.50977,38.302803
766a1c77-391c-4e21-8b60-0fc75d98870b,American Eagle Outfitters,Foley,AL,36535,Apparel & Accessories,-87.67982,30.37414
4c24a443-f45e-4de4-9916-928904ba7f90,Edible Arrangements,Avon,OH,44011,Specialty Retail,-82.01514,41.468136
6af607af-7f06-4dd1-9151-e0139c2ad5ee,Fairfield Inn & Suites by Marriott,Fargo,ND,58103,Services,-96.845985,46.866253
69dd2c7c-7c10-4550-90ab-b0df75e10bc1,Perfumania,Yonkers,NY,10704,Specialty Retail,-73.85485,40.928493
f02e355a-b965-4f64-9bac-ef65946b44b6,Rooms To Go,Grapevine,TX,76051,Furniture & Home,-97.037895,32.969074
5e236812-53d9-45b3-a599-1f9ebb2ee2db,Once Upon a Child,Manchester,CT,06040,General Merchandise,-72.54172,41.779686
bddb2885-386f-43ea-bfe0-cd137836a2b3,OnPoint Community Credit Union,Vancouver,WA,98684,Services,-122.55693,45.641304
2c10660f-cbd5-438f-9aae-7d8ba3aaef67,Panera Bread,Forest Hills,KY,40299,Quick Serve Restaurants,-85.58941,38.21574
1882413f-90ea-4a4f-b9c9-cbb6593ae790,Mattress Firm,Tinley Park,IL,60487,Furniture & Home,-87.794014,41.54771
11af264c-ad74-416c-9bee-b35db9aabb42,Holiday Inn Express,Scott,LA,70583,Services,-92.10128,30.246283
90e79b20-008b-48aa-b7ff-cdec7d0788af,McDonald's,Orlando,FL,32839,Quick Serve Restaurants,-81.42947,28.491613
20165132-9f60-499f-af1b-3f2a532c97cf,Chevron,Nipomo,CA,93444,Convenience & Gas Stations,-120.48518,35.036167
e58a718a-fb99-4199-99f7-41f8cbf69bbf,Herc Rentals,Los Angeles,CA,91352,Services,-118.35825,34.212543
0ecb0370-9fd4-4c00-8993-10edba3f884e,Banana Republic,Denver,CO,80202,Apparel & Accessories,-104.9913,39.74421
b0221081-003c-4c62-a776-c802fb5f4a6e,Mister Car Wash,Mount Pleasant,MI,48858,Automotive,-84.74431,43.61122
ebd971fe-3255-4393-a8d8-7d852ada3ea6,Habitat for Humanity,Bellefonte,PA,16823,Services,-77.752625,40.915207
be5784b9-6e75-4f21-9dac-6114086c5c40,Whitts Barbeque,Gallatin,TN,37066,Restaurants & Bars,-86.459526,36.389317
39817aba-ff0b-426c-9e47-601c4fdfbdb9,Publix Super Markets,Thomasville,GA,31792,"Food, Groceries & Supermarkets",-83.94681,30.837385
35fad73f-3d16-489e-9ef7-121f6cd5cc5e,CITGO,Middletown,NY,10940,Convenience & Gas Stations,-74.419624,41.524323
b3f0aa45-09e6-4bc5-bf94-2e90da841bcf,Dollar General,Thomasville,GA,31792,General Merchandise,-83.94735,30.856289
e9b3ed58-9bd1-4b49-bfc7-bc6715b3f297,CVS Pharmacy,South Easton,MA,02375,General Merchandise,-71.143524,42.027702
122e981d-dfa9-4952-9b4c-0c0f728aa2d0,Domoishi,Newport News,VA,23602,Restaurants & Bars,-76.535484,37.129494
4b87f4fb-a74d-4b44-bbc7-6ae7d99f5cda,State Farm,Fountain Hills,AZ,85268,Services,-111.71107,33.56918
6e6b53e8-7864-4f53-a199-9dcd0fdea1e5,Pieology Pizzeria,Moreno Valley,CA,92553,Quick Serve Restaurants,-117.27844,33.93383
b4ab41d5-b824-4765-a744-13c13f642228,It's Just Wings,Warwick,RI,02886,Quick Serve Restaurants,-71.492134,41.70477
e57b7f50-d3b8-4a23-808e-859a746454cb,Water'S Edge Shopping Center,Pleasant Hill,IA,50327,unbranded,-93.525375,41.60154
1aae0ac0-a44f-4ed7-8a4f-42aadc3758a2,Take 5 Car Wash,New Philadelphia,OH,44663,Automotive,-81.4677,40.49273
cbf82aab-89c1-47ff-a6ba-7abf39aa7f48,Badcock Furniture,Dawson,GA,39842,Furniture & Home,-84.443726,31.7628
05f4925b-f6d4-4230-9f9f-bdc10bd63684,Subway,Palo Alto,CA,94306,Quick Serve Restaurants,-122.14472,37.426113
41aa8f8b-c98e-4225-969b-2cc928e0d421,Gus's Fried Chicken,Los Angeles,CA,90019,Quick Serve Restaurants,-118.32637,34.048046
1772a436-aad2-41e9-bc9b-293d1a56010e,Wendy's,Jackson,WY,83001,Quick Serve Restaurants,-110.77102,43.478275
ce277676-e8ef-430d-973d-32189bb0150b,Shell Oil,Livonia,MI,48152,Convenience & Gas Stations,-83.41615,42.413895
8ba6a5a9-4af9-41ef-a8f4-6e806eb8ded5,United States Postal Service (USPS),Renwick,IA,50577,Services,-93.97896,42.827724
9f02a04d-b5ed-45eb-aa9c-b8508bf91001,Blick Art Materials,New York,NY,10027,Specialty Retail,-73.95017,40.81007
412593e2-75a0-49cb-b157-d6ee389a1eb4,BP,Kings Mountain,NC,28086,Convenience & Gas Stations,-81.40532,35.245872
9ae39dc8-caa1-43a1-9130-4069f05fe52f,total by Verizon,Pittsburgh,PA,15203,Electronics & Wireless,-79.97715,40.42846
347aa078-5f13-4ffe-bde0-7d8b247043be,Harveys Supermarket,Jesup,GA,31545,"Food, Groceries & Supermarkets",-81.90591,31.603022
d378f30b-6bfb-46e4-bab5-02eebdee97bb,Champagne's Market Duson,Duson,LA,70529,"Food, Groceries & Supermarkets",-92.184845,30.234879
630360cf-505a-4b9c-92a7-3710acd48993,Pollo Tropical,Daytona Beach,FL,32114,Restaurants & Bars,-81.0585,29.19649
29d0c49b-824a-45d5-9a95-799af3281e51,Tex's Chicken and Burgers,Philadelphia,PA,19149,Quick Serve Restaurants,-75.06175,40.048428
a63f33ab-097c-4e88-b0a5-50c545c67778,America's Best Contacts & Eyeglasses,Grand Rapids,MI,49525,Services,-85.59309,42.994076
3563b093-f4ae-4899-b5d0-8922dcda5afd,Games Workshop,Cincinnati,OH,45209,Specialty Retail,-84.42567,39.146053
7e6e1b52-0ddd-4ad3-9281-2ec41be9e5a0,Waffle House,Bishopville,SC,29010,Restaurants & Bars,-80.27723,34.196728
b64e322b-ab8c-4887-8dea-c06fd043eeae,Sally Beauty Supply,Edison,NJ,08817,Specialty Retail,-74.397064,40.507164
dc1f094c-f7e3-4b06-b6e4-ac4bdf7219b6,U-Haul,Augusta-Richmond County consolidated government (balance),GA,30904,Automotive,-82.03266,33.447838
7c36d562-77d1-4452-8e04-07472d810e8c,Bank of America,Raleigh,NC,27615,Services,-78.62045,35.86871
b068da2d-c5a5-405d-bc4c-e20ca394eb97,T Mobile Authorized Retailer,Naples,FL,34119,Electronics & Wireless,-81.69095,26.26893
7a461bb5-5b8e-4c1f-9698-880cc36cdc3d,Walgreens,Margate,FL,33063,General Merchandise,-80.221245,26.234613
b58a444e-bcd4-412b-a101-8f9ce144dab2,XFINITY by Comcast,West Homestead,PA,15120,Electronics & Wireless,-79.91715,40.407272
2d98878a-f20b-4bc8-8fa2-620227980af8,7-Eleven,Killeen,TX,76543,Convenience & Gas Stations,-97.71785,31.104685
5484d37b-d4e2-45d4-b94f-a7d36c21af5c,Marathon,Springfield,OH,45506,Convenience & Gas Stations,-83.82138,39.919186
a12f0728-ff92-43a4-b730-3cac80b1baef,Sonic,Daphne,AL,36526,Quick Serve Restaurants,-87.898865,30.603178
1591bf92-e81d-483d-9cd9-3352c9a19593,McDonald's,Green Bay,WI,54311,Quick Serve Restaurants,-87.9658,44.48707
57465103-088c-4e20-9c6a-7bedebdc1873,Rocket Fizz,Laramie,WY,82072,"Food, Groceries & Supermarkets",-105.56146,41.309536
b476bd10-574b-447f-b635-70161940ae37,K & G Fashion Superstore,Florissant,MO,63033,Apparel & Accessories,-90.27719,38.772766
ffce680a-aae9-4a17-9f4a-86f387304fc1,CVS Pharmacy,Olean,NY,14760,General Merchandise,-78.43026,42.083317
45867f72-aa4e-4038-8570-0015fe830cce,Iron Mountain,Nashville-Davidson metropolitan government (balance),TN,37207,Services,-86.78407,36.22389
6b0245cc-b6a9-4152-8d5f-f3846139cf32,Fondren Road Plaza,Houston,TX,77074,unbranded,-95.50638,29.688362
8782cdd4-a2c3-4518-bc9b-af6f40c5bda5,Juice It Up!,College Station,TX,77845,Quick Serve Restaurants,-96.28818,30.582571
01b8ab00-6f02-49ad-92da-7b2d9e93b061,BMO Bank,Zionsville,IN,46077,Services,-86.278046,39.950424
bda6962f-257f-4f38-a32c-2791123957b9,McDonald's,Shoreline,WA,98155,Quick Serve Restaurants,-122.293,47.73424
e1d21781-d6bd-48f4-932b-a52ee9c97098,Valero Energy,Parlier,CA,93648,Convenience & Gas Stations,-119.548164,36.60522
33403b15-4622-4e91-a1c8-ea8838b382bc,Magnolia Oaks Village,Hinesville,GA,31313,unbranded,-81.65076,31.81609
f3f96b8a-6608-4afe-aec9-5cbe1bc930e8,Pizza Hut,Stone Mountain,GA,30088,Quick Serve Restaurants,-84.19595,33.763268
9f6823c8-988c-4910-bb12-a583b6d5ca65,Claire's,Emporia,KS,66801,Apparel & Accessories,-96.21589,38.417892
bb3d6dd8-c90f-42c9-98a7-c0fe26f253f1,Baymont Inn & Suites,Mukwonago,WI,53149,Services,-88.32472,42.85104
a203d1a0-85f7-4f99-a790-b4a8ad9418c3,Hardee's,Auburn,AL,36832,Quick Serve Restaurants,-85.505455,32.593258
e2c90768-b039-4cef-bee6-734c68faaff8,ALDO,Los Angeles,CA,90048,Footwear,-118.37725,34.074623
f6e4001f-8dfa-480e-b43b-c52d78b82c84,Sunbelt Credit,Minden,LA,71055,Services,-93.26015,32.623726
4569a7f1-dfea-4c63-a412-22d48644d05f,Costco Pharmacy,Fair Oaks,VA,22030,General Merchandise,-77.37229,38.84993
bb9a9bb5-e923-42d3-bd45-66f6befe931e,Equipment Share,McKinney,TX,75069,Services,-96.60026,33.203743
47e2af1d-c850-4128-bb10-9b44e9cc47e3,Firehouse Subs,Fultondale,AL,35068,Quick Serve Restaurants,-86.80563,33.605198
e6d07d62-f6ed-4272-ac7b-7830abd16077,Target Optical,Houston,TX,77082,Services,-95.627,29.732649
376a09a0-5a2c-475e-a186-51af966a3457,SmartStyle Family Hair Salons,Pineville,MO,64856,Services,-94.27777,36.507668
0c50bd63-f217-41ee-af2f-1767be2383c8,Umpqua Bank,Vancouver,WA,98683,Services,-122.504845,45.61055
68f37d08-4d68-4d70-b734-b02b4859be17,Bumper To Bumper Auto Parts,Clarendon,AR,72029,Automotive,-91.30428,34.69216
48fa75b5-977c-425a-abda-e10a1e6afa14,7-Eleven,Niagara Falls,NY,14304,Convenience & Gas Stations,-78.96706,43.09002
c36100f7-0b35-4f1c-b544-c485de5af97d,Windsor,Vamo,FL,34238,Apparel & Accessories,-82.49484,27.23447
a5768f1e-e573-484e-9122-23581747ba2b,Thorntons,Nashville-Davidson metropolitan government (balance),TN,37013,Convenience & Gas Stations,-86.65151,36.03345
79a76ba5-8d3d-48da-b45f-9a4a214629ec,Builders FirstSource,Piney Flats,TN,37686,Other,-82.31009,36.42181
d7bdd07a-89dd-42d6-8d5c-453bb823c123,OneMain Financial,Sheridan,WY,82801,Services,-106.947464,44.788883
9b3ef1a5-6a5d-43e9-83be-f9b3f06a5737,BMO Bank,Littleton,CO,80123,Services,-105.09925,39.610184
8b4e9e5a-cb31-4911-81ea-fc8138035ed0,Shoppes At Jefferson City,Jefferson City,MO,65109,unbranded,-92.24021,38.580612
c3f2dc1d-d7b4-4516-b487-270b4789e749,OYO,Channelview,TX,77530,Services,-95.12934,29.77742
f91cfb03-0493-49f8-81fa-c9bbbd30e432,Public Storage,Stockton,CA,95210,Services,-121.294395,38.00246
37c0949b-357d-40a6-a5f3-545e73b31a39,Do It Best,Burns,KS,66840,Furniture & Home,-96.88589,38.089558
088bc091-48b4-4fe5-91f5-1f5e10443ded,Progressive,Campbellsville,KY,42718,Services,-85.33992,37.346962
83ff7bfd-d281-45c3-857d-63b05ece0b57,American Job Centers,Leesville,LA,71446,Services,-93.26812,31.137543
8f5c7d19-8500-4111-93d1-592aee01cc47,Huey Magoo's Chicken Tenders,Four Corners,FL,34747,Restaurants & Bars,-81.61951,28.261112
a88d4078-97a7-48c7-b79a-a0d050a916f1,Dunkin',New York,NY,11235,Quick Serve Restaurants,-73.95968,40.58257
be179adc-e3d9-468e-bda0-4bc01144a09d,Casey's General Stores,Bellevue,NE,68123,Convenience & Gas Stations,-95.95826,41.138256
0b5abc29-165f-4ed0-a075-35740b147694,Interstate Batteries,Owasso,OK,74055,Automotive,-95.84664,36.265778
0fa0cbd9-bdbf-4260-bf71-d084abb58a75,Pure Barre,Pikesville,MD,21208,Leisure & Recreation,-76.73608,39.388985
e6cbafef-a101-4cae-bf87-43d3463ca5f6,Fords Shopping Center,Fords,NJ,08863,unbranded,-74.322075,40.548
b631d3e6-b0c1-47a1-9cd7-26b6317c18cd,Walgreens Pharmacy,Rochester,NY,14606,General Merchandise,-77.63804,43.16441
ad87562a-be46-4ff7-a872-c4878089941e,ABC Supply,Nederland,TX,77627,Other,-94.025826,29.971315
16898dd8-8624-4917-be56-7a9edf0e94d2,Rent-A-Center,Owosso,MI,48867,Services,-84.14613,42.999672
622ea70d-8bff-4216-879c-adeb10d440e2,Edition Hotels,West Hollywood,CA,90069,Services,-118.38923,34.090378
17e7aefd-b282-4240-941d-42747b9e82a7,Stop & Shop,North Andover,MA,01845,"Food, Groceries & Supermarkets",-71.10979,42.66026
d7e77f4c-db0e-4824-a4b0-c8ed6857caa8,Sprint,Gainesville,FL,32608,Electronics & Wireless,-82.37668,29.623512
8d670d75-f200-47c9-80af-7ae87818b4c5,Shoe Show Mega,Marion,VA,24354,Footwear,-81.501335,36.846115
7c84b9d3-0762-4f7a-a48f-264654821d07,Marketplace At South Town,Sandy,UT,84070,unbranded,-111.894226,40.562496
009b1cf0-a525-47b1-aad5-66b59b6f69cb,Edward Jones,Marietta,GA,30062,Services,-84.42831,33.98609
80219767-498c-4bc0-bd3c-bdaef94cd332,Domino's Pizza,El Paso,TX,79924,Quick Serve Restaurants,-106.40722,31.900991
b230018a-3ad2-45fc-8063-31095942af8a,Starbucks,Columbia,SC,29204,Quick Serve Restaurants,-81.01058,34.013817
71f87c88-3868-4c5e-be43-e7bd0b0fbfba,Johnson Controls,Medley,FL,33178,Other,-80.373825,25.862555
a40b1772-fd81-4998-aa13-2378b0dacd34,Jared Jewelers,Waldorf,MD,20603,Apparel & Accessories,-76.91365,38.62761
cf5e903e-6c02-4d21-b3bf-b2f8e20a9831,Kid to Kid,Dunwoody,GA,30338,General Merchandise,-84.31604,33.922092
191b22e0-3d5b-46d3-9f18-b6ffe62dd78d,Burlington,Winston-Salem,NC,27103,Apparel & Accessories,-80.2934,36.070297
9ac3751b-4bfa-400b-958b-3a251c6f3536,Dogtopia,Summerville,SC,29486,Services,-80.10571,33.04795
24d8a481-ce3a-4f8c-9c84-099d6de238a3,Starbucks,Cincinnati,OH,45202,Quick Serve Restaurants,-84.50633,39.108192
986c3705-fffe-49e9-a59f-d11a7c2a4a6e,McDonald's,Grants Pass,OR,97527,Quick Serve Restaurants,-123.353294,42.420635
c66778eb-3484-4a51-a2b9-1855e9bb114f,Burger King,Fallbrook,CA,92028,Quick Serve Restaurants,-117.25172,33.375137
93c405aa-6aac-4c1a-a9ce-b08285aa0349,Mobil,Seaview,WA,98644,Convenience & Gas Stations,-124.05519,46.331276
ed4205d0-5760-4d6d-ac2e-8d38b33848d6,H&R Block,Lamesa,TX,79331,Services,-101.95004,32.756798
fac3906c-77e9-4787-9beb-3266946f8ec7,McDonald's,Malakoff,TX,75148,Quick Serve Restaurants,-96.01359,32.171143
0bd7474e-58c5-4013-bbcd-cf53f1d0f39f,Verizon Wireless,Redmond,WA,98052,Electronics & Wireless,-122.10992,47.67126
f7769ab0-0f8b-4d3a-bd52-4859201be730,Crawford & Company,Lancaster,PA,17601,Services,-76.30577,40.072
853107e0-7fcd-4df5-a770-961597b202e2,Hunt Brothers Pizza,San Leon,TX,77539,Quick Serve Restaurants,-94.918846,29.495253
768b1998-d94f-4d11-a51a-468dfad26497,HomeSmart,Montebello,NY,10901,Services,-74.10593,41.115875
c9d87b1e-2c0d-4990-8dc9-59ad0417d282,7-Eleven,Greenwood Village,CO,80111,Convenience & Gas Stations,-104.88862,39.596245
4998ce6c-b233-4d64-ba62-4a2c9d4b0e97,Prime Lending,Kahului,HI,96732,Services,-156.46954,20.889711
38fa5116-6f52-40e3-8432-f1a033857bd1,Raymond James Financial,Greenwood,IN,46143,Services,-86.07516,39.619823
5565b771-754a-4842-a06a-f7ce6ff23c90,Keller Williams,Burien,WA,98166,Services,-122.341484,47.466576
e4505f52-6e0f-4eaa-816a-1582a364e01c,AutoZone,Athol,ID,83801,Automotive,-116.692924,47.948704
2c16aa4f-1c6c-4f28-93b7-14318e14cec1,Thrivent,Lodi,CA,95240,Services,-121.275505,38.10666
7b931a9a-18e8-4114-a1e8-e11ad6933a9e,The UPS Store,Greenwood,SC,29649,Services,-82.17364,34.206764
9ec93007-3602-4a09-9ffb-732181a39b9c,Green Mill Restaurant and Bar,Plymouth,MN,55441,Restaurants & Bars,-93.4556,45.00832
c49d6b22-b96a-4be8-908c-9d34703462fd,Marathon,Newton,AL,36360,Convenience & Gas Stations,-85.56872,31.376524
ee364209-ed1c-46f8-bfa7-6a6652a7dfd0,Starbucks,Long Beach,CA,90815,Quick Serve Restaurants,-118.14232,33.803043
d93d5588-8248-4269-8f08-68c27ed450d5,Circle K Gas,Brattleboro,VT,05301,Convenience & Gas Stations,-72.56549,42.836784
c995f5ab-53a6-4a99-8222-46731aa2ec3f,Santander Bank,Broomall,PA,19008,Services,-75.37434,39.984127
73f28803-a413-4737-ba4d-ba7b779e8aef,Gatti's Pizza,Baton Rouge,LA,70808,Restaurants & Bars,-91.10987,30.39578
56bc5cfb-8ee2-450c-97f9-43f43366771e,Cashland,Fairfield,OH,45014,Services,-84.49986,39.321083
3c889a47-5cfd-4193-8d93-1430d7aad276,CVS Pharmacy,Bremen,GA,30110,General Merchandise,-85.14461,33.719715
b5f73af2-c22a-4eeb-b9e1-2ead48d5c5f4,Schrader Oil,Windsor,CO,80550,Convenience & Gas Stations,-104.89091,40.464832
189fa137-7ff9-46e5-b94d-53c6d826a2c8,Express Stores,Brooklyn Park,MD,21225,Electronics & Wireless,-76.612495,39.224697
032e0a18-78cd-49ee-b53f-1c38680ecf23,Chase,New York,NY,10007,Services,-74.00663,40.714195
e5ffad22-0e22-443b-983b-740757ff6dc6,Papa Gino's,Stoneham,MA,02180,Quick Serve Restaurants,-71.09977,42.489525
64277f59-3e7a-4ede-8ceb-7684e68bcbc9,PPG Pittsburgh Paints,Hendersonville,TN,37075,Furniture & Home,-86.59699,36.322887
af262004-c93f-4b3d-8ed0-333b2687bf74,Acceptance Insurance,Dothan,AL,36303,Services,-85.393654,31.228014
3ebab6c1-62cc-4b2f-8a9d-d372eba225ab,State Farm,Moraga,CA,94556,Services,-122.12444,37.854443
6f799ba3-c90a-47f1-b403-6c4fb19b244b,BJ's Restaurants,Hurst,TX,76053,Restaurants & Bars,-97.20371,32.828243
e3a944a1-9859-4f0e-a75b-3548e34eeed7,Mathnasium,Wilmington,DE,19810,Other,-75.49924,39.82363
24d12c2c-e07e-4e47-ace1-1e910576123b,PacSun,Woodburn,OR,97071,Apparel & Accessories,-122.87924,45.155273
804730ad-fc51-4ce2-bb94-e90d272f0f1f,Synovus,Orlando,FL,32832,Services,-81.244934,28.392681
d8e4f6da-7173-4447-b93c-7d636562927b,Dollar General,Lee's Summit,MO,64086,General Merchandise,-94.33816,38.917747
e176e4fa-43d6-40e1-a947-810fc770d72f,T Mobile Authorized Retailer,Liverpool,NY,13088,Electronics & Wireless,-76.159966,43.122185
f1d7f599-81d6-45c8-881b-46d1a890c8c6,U.S. Bank,Carlyle,IL,62231,Services,-89.367325,38.610374
8c527d6a-970c-4ad2-a747-806743797fc3,Bojangles',Rock Hill,SC,29732,Restaurants & Bars,-81.06062,34.95243
53d89d34-041c-4c02-8088-cd53779b86fd,Chicken Salad Chick,Bloomington,IL,61701,Quick Serve Restaurants,-88.95404,40.4895
78fd197d-21ea-4b1d-8edd-1769c7c8a54c,Ramada,Mount Sterling,KY,40353,Services,-83.951904,38.07965
9fa5c1c0-ef36-48a2-b1f0-d3452292b4db,BP,Lewistown,MO,63452,Convenience & Gas Stations,-91.81228,40.0856
1b55c30e-c7d8-4d1b-8e8a-f12cd832d693,Valley Square,Lewisville,TX,75077,unbranded,-97.01271,33.04764
58f73180-5fb9-4a84-aa51-dff15f1c7d51,Hunt Brothers Pizza,Broussard,LA,70592,Quick Serve Restaurants,-91.99211,30.144419
f25a27fb-3479-40de-8fb6-4750f3aee409,SavOn,Canastota,NY,13032,Convenience & Gas Stations,-75.749626,43.087303
f3b85efc-e665-4a29-9422-bbe77a7ccbef,Ellianos Coffee,Bellair-Meadowbrook Terrace,FL,32073,Quick Serve Restaurants,-81.746445,30.170897
0bdc05d4-cad0-4964-94ae-c95dd4dbdac1,Davi Nails,Mesa,AZ,85209,Services,-111.60037,33.38462
2380e59a-bbea-48c3-a492-81945822c96c,The Tutoring Center,Cypress,TX,77433,Other,-95.68598,29.880432
b8b9ac6e-e9c3-4d6b-ac37-c20b073d4b0e,Mobil,Loch Sheldrake,NY,12759,Convenience & Gas Stations,-74.66567,41.778225
ebd333bc-0cfc-415a-a2e3-3dcbc605b56e,10Box Cost-Plus,Ada,OK,74820,"Food, Groceries & Supermarkets",-96.668915,34.791443
0681410d-5b80-49a5-ba54-c14b2148bae4,United States Postal Service (USPS),Munich,ND,58352,Services,-98.83524,48.670654
924f37c6-d2bd-41bd-abf3-9ebc4da4558b,Waterford Ct Sears Appliance Repair,Waterford,CT,06385,General Merchandise,-72.14281,41.37356
69687b0d-2c8b-40cf-8248-e80d4e4a60c3,Courtyard Ewing Princeton,Ewing,NJ,08628,Services,-74.810135,40.286095
544b45be-fe5e-41a6-8c25-179fbf495662,Erbert & Gerbert's,Green Bay,WI,54301,Quick Serve Restaurants,-88.0146,44.51606
dc288e7e-1bea-4964-8e06-0004578314b8,CITGO,New York,NY,10471,Convenience & Gas Stations,-73.89691,40.907703
9515875e-51d9-4157-8757-987a478df82d,Public Storage,Statesboro,GA,30458,Services,-81.77042,32.405224
708cd69e-bd50-4fea-821e-1aa49dd44b9e,Express Employment Professionals,Sioux Falls,SD,57104,Services,-96.76062,43.542683
90df4b67-7f7e-416b-a51a-3f2bfbf793fc,The Home Depot,Racine,WI,53406,Furniture & Home,-87.85028,42.70219
1e38979c-831b-4de4-b5b2-3c26327aa4b1,Popeyes Louisiana Kitchen,Arlington,VA,22204,Quick Serve Restaurants,-77.1132,38.856174
341f2f40-e5c5-45dc-ab08-386c3548aa84,ConocoPhillips,Craigmont,ID,83523,Convenience & Gas Stations,-116.582855,46.24032
1a30de35-22fe-4e7b-8a13-fdd22bb806a2,Anytime Fitness,Columbia,MO,65202,Leisure & Recreation,-92.28483,38.965652
d5640927-bb6a-4513-be97-1ac0c4865617,Eureka!,Huntington Beach,CA,92647,Restaurants & Bars,-117.99581,33.73154
830972ac-448c-452a-89ad-711249f81cb8,Subway,Sanford,NC,27332,Quick Serve Restaurants,-79.13056,35.44275
8ed30f55-badd-4ddc-8fd8-f980061a8299,Wow Bao,Rosemead,CA,91770,Restaurants & Bars,-118.07118,34.07301
cbca0ee8-ecdb-49d1-969a-24a1123c95fe,PNC Financial Services,Wyckoff,NJ,07481,Services,-74.16793,41.01181
234353d9-06ad-4321-8925-ac3acaea10b8,Take 5 Oil Change,Carrollwood,FL,33624,Automotive,-82.534325,28.058638
413ca636-67e0-4fc1-acd1-d4c10140bbf5,Crossfit Sterk,Orange City,IA,51041,Leisure & Recreation,-96.05168,42.990192
3aad9c4b-ce5a-4321-90f4-279ca6355182,Circle K,Minooka,IL,60447,Convenience & Gas Stations,-88.27098,41.41903
c58846df-d8e1-4492-a5d6-5605e9d27415,Biggby Coffee,Mattawan,MI,49071,Quick Serve Restaurants,-85.78506,42.23787
2af97ac0-320c-4ff0-9e5a-d779a8bff110,Michaels Stores,Hadley,MA,01035,Specialty Retail,-72.556046,42.35289
6d669470-653b-4355-ac44-158acebd6d1e,LaserShip,Logan Township,NJ,08085,Services,-75.34443,39.786762
45eeee3e-8413-4100-975b-490978924e9e,Music & Arts,New Braunfels,TX,78130,Specialty Retail,-98.070946,29.729017
e7aba75d-5aa9-4746-a544-bd63a727ef98,AutoZone,Booneville,MS,38829,Automotive,-88.56107,34.67357
13c5e5ec-95ed-4f60-aabe-8ec522010875,Dalton Lowe's,Dalton,GA,30721,Furniture & Home,-84.95998,34.792225
7a80beef-59c1-4b1e-be7e-151cb361a2af,OneMain Financial,Oxnard,CA,93036,Services,-119.17532,34.219574
6b5b2fe6-07b7-4160-9291-9f54571747e7,Take 5 Oil Change,Lexington,SC,29072,Automotive,-81.232376,33.99194
fc44eb2c-894b-415c-b60e-0ca722fc6f6e,KFC,Madison,WI,53716,Quick Serve Restaurants,-89.31597,43.084217
a0348a97-1fd3-41f7-8a63-aaefb31ffd84,Comfort Inn,Orange,VA,22960,Services,-78.11184,38.235783
9f20ec42-7e49-473b-a41d-1b610f0b9e2d,CVS Pharmacy,Kansas City,MO,64154,General Merchandise,-94.65534,39.257484
0fe93929-32f3-42a6-a0f1-098c4e875223,Toot'n Totum,Amarillo,TX,79109,Automotive,-101.8845,35.163235
af3e2c8a-e146-494d-b8bc-b2f9fdafe27e,Freddy's Frozen Custard,LaGrange,GA,30241,Quick Serve Restaurants,-85.02423,33.04897
0cc2f801-1f8f-45d0-a807-05d1048f5bec,Discount Tire,Myrtle Beach,SC,29575,Automotive,-78.98607,33.64294
9696b929-d158-4461-ad06-e39510d64d71,Marshalls,Rio Grande City,TX,78582,Apparel & Accessories,-98.800446,26.369694
ee56e38b-719d-4d76-8f11-34ad923868a1,Do It Best,Pelham,GA,31779,Furniture & Home,-84.15471,31.126507
25905930-c68e-4a3e-b751-0c59beaba723,J Mclaughlin,Ridgefield,CT,06877,Apparel & Accessories,-73.498795,41.28117
fc50bc09-15f4-4feb-a26e-1f05859e51e7,Dollar General,Piney Flats,TN,37686,General Merchandise,-82.34447,36.403053
fd8cc6c0-d3a3-4a23-8baa-bf70280d350a,Cricket Wireless,Pennsauken,NJ,08109,Electronics & Wireless,-75.05865,39.95459
6b29d490-b06b-41e8-9e1b-cf0a65596a4a,The Loop Pizza Grill,Orange Park,FL,32073,Restaurants & Bars,-81.7046,30.184837
a3e3dc57-6df0-48ff-979f-d9bad43423d9,7-Eleven,San Francisco,CA,94114,Convenience & Gas Stations,-122.4326,37.761173
febb1789-4679-4ad3-9fc6-2b024fbcfc22,Midas,Fairfield,OH,45014,Automotive,-84.48689,39.304733
584a7cc6-667c-4766-9531-dcf042161192,State Farm,Trevose,PA,19053,Services,-74.96684,40.153744
6230ce62-ca83-4202-a038-6398417e6dc3,Senick's Food Mart,Milwaukee,WI,53233,"Food, Groceries & Supermarkets",-87.93273,43.0408
0bd91897-f8cf-4d96-ade4-914f124d59ff,Progressive,Fruitport,MI,49415,Services,-86.155624,43.125523
58a7bab6-420f-4bff-9c52-b99f67b394a7,Advance Auto Parts,Taylor,MI,48180,Automotive,-83.247314,42.257984
3d8d3237-bde3-4028-8701-0bfb93d66568,Logan's Roadhouse,Grandville,MI,49418,Restaurants & Bars,-85.77385,42.884083
3cd67a2f-8a46-41ca-ae27-a568f9243bd4,Farmers Insurance Group,Prague,OK,74864,Services,-96.68998,35.486923
ccd7ed17-9d7a-46f9-9f60-ddbb8e517ee5,Nordstrom Rack,Algonquin,IL,60102,Apparel & Accessories,-88.33977,42.152477
5eb1053e-1c14-4455-9976-dd4c4121d5f8,Camp Bow Wow,Avondale,AZ,85323,Services,-112.32739,33.452877
de9c28cf-04bd-4037-a824-b6a4fced6fee,Glass America,Floresville,TX,78114,Automotive,-98.159546,29.133995
7c96f77f-47e0-4cb4-b18a-743ec6849cf1,Chick-fil-A,Little Rock,AR,72201,Quick Serve Restaurants,-92.2761,34.7425
6229b2c2-23fa-4ba7-9180-ef280fb23cc7,Harveys Supermarket,Melrose,FL,32666,"Food, Groceries & Supermarkets",-82.05617,29.763058
69bc1f4e-9dfc-4f58-8d4c-1069732156d0,Village Commons,Tallahassee,FL,32309,unbranded,-84.25062,30.511885
a4fb9bc8-619e-4b98-bfb4-89e5c5e444af,RaceTrac,Dallas,TX,75287,Convenience & Gas Stations,-96.830345,32.98963
78785282-ae29-4e4d-bd71-532fbf7cb202,Chateau Big Bear Boutique Hotel Bw Signature Collection,Big Bear Lake,CA,92315,Services,-116.8808,34.243534
51a4c7d3-259f-4745-9f66-e52295ccd690,Staffmark,Kansas City,MO,64120,Services,-94.53426,39.13365
89b1b5b5-d249-492d-9e82-fb0ddccb1ac7,State Farm,Reno,NV,89523,Services,-119.85938,39.518257
0eba78a4-b36c-4484-89a7-56d29722304d,Panera Bread,Christiansburg,VA,24073,Quick Serve Restaurants,-80.42309,37.167103
41676fd6-3059-43ac-b9a8-0a5998766f92,O'Reilly Auto Parts,Barnesville,GA,30204,Automotive,-84.16951,33.04156
f9719b0f-9b2a-40a5-bbc2-c22be24bcbeb,Meet Fresh,Houston,TX,77036,"Food, Groceries & Supermarkets",-95.54987,29.70454
b75b12eb-7703-4cc7-a2f0-e81837e91eb1,Planet Smoothie,Winter Springs,FL,32708,Quick Serve Restaurants,-81.26493,28.64623
5b76d6cb-57b4-4a3c-9f1e-0dfd69de1177,Waffle House,Bowling Green,KY,42101,Restaurants & Bars,-86.467285,36.979824
2754a55e-ff4f-4708-951b-66b50fec0a54,Shipley Donuts,Madisonville,TX,77864,"Food, Groceries & Supermarkets",-95.88112,30.966997
6fa903ad-2d0d-475c-a47b-c50f2a1cb371,Willowchase Shopping Center,Houston,TX,77070,unbranded,-95.5513,29.96044
61152505-f6e4-4c78-82a3-5e5d1b2c6bca,Ralph Lauren,Los Angeles,CA,90067,Apparel & Accessories,-118.418846,34.059
f4d95868-82d1-4881-ad4d-656f91bbf26a,Protein Bar & Kitchen,Oak Brook,IL,60523,Quick Serve Restaurants,-87.93029,41.84934
17faa5b5-4eeb-4c30-95cc-51766dc03d70,Hallmark Cards,Leonardtown,MD,20650,Specialty Retail,-76.66043,38.304333
a7e908f9-6bd2-4e6e-a88f-4600f1848ddd,Shell Oil,Cleveland,OH,44115,Convenience & Gas Stations,-81.666435,41.499664
c5e7e172-7402-422e-be4a-f33e22622731,Sunoco,Stuart,FL,34997,Convenience & Gas Stations,-80.25695,27.111431
993a14be-8ee7-400e-b71b-2b19dcacef1d,Broadneck Pharmacy,Arnold,MD,21012,General Merchandise,-76.51609,39.055954
ca03d633-0121-4978-b99d-5e6d6b774f57,Raymond James Financial,Grand Rapids,MI,49503,Services,-85.673065,42.960693
8139aa70-72d4-42d2-8f81-fdfb0d45610c,Regions Bank,Guntersville,AL,35976,Services,-86.31251,34.337406
01ce3283-f0ba-4c85-9ece-5f261eff1c1f,Tuffy Auto Service Centers,Elyria,OH,44035,Automotive,-82.11942,41.400143
72be08d2-766f-43be-8c47-9250bba30c07,GNC (General Nutrition Centers),Stone Mountain,GA,30083,"Food, Groceries & Supermarkets",-84.224106,33.798424
ffe4541a-1ccd-4ea0-9a60-319ff04cbcff,Taco Bell,Oklahoma City,OK,73099,Quick Serve Restaurants,-97.72003,35.431633
e3036c74-f23d-48de-8a94-6fac8d170bec,America's Best Contacts & Eyeglasses,Raleigh,NC,27616,Services,-78.58074,35.87371
4df839c3-b21d-42c0-9195-bf5084c0d915,Go! Calendars Toys & Games,East Wenatchee,WA,98802,Specialty Retail,-120.28905,47.41152
778cf3dd-5d99-4611-a360-e45bd57be568,Subway,Augusta-Richmond County consolidated government (balance),GA,30815,Quick Serve Restaurants,-82.070694,33.374912
01ecbe67-b1ca-4359-9077-7c63bf382883,State Farm,Dundalk,MD,21222,Services,-76.52214,39.257637
32a99979-fae1-4fcb-bc82-af510fac91df,Catherines,Hedwig Village,TX,77024,Apparel & Accessories,-95.52727,29.783176
679acb6a-f769-44c3-864c-1cb314836c11,Fedex Office Print & Ship Center,Suisun City,CA,94585,Services,-121.98963,38.242634
cb378409-8c4a-41fb-8a65-95bdfe3842db,Outback Steakhouse,Newington,CT,06111,Restaurants & Bars,-72.72198,41.66071
31369e80-69b8-4f48-a2e5-acb66e4d9356,Mattress by Appointment,Mauldin,SC,29662,Furniture & Home,-82.30446,34.77961
c5d26e56-bdba-436c-ad15-fd03f944ff5f,Metro by T-Mobile,Poughkeepsie,NY,12601,Electronics & Wireless,-73.91746,41.700348
b1a3132b-7ef2-4cdc-aa25-944de3f78476,Motion Industries,Roanoke,VA,24012,Other,-79.925804,37.284676
4931b542-2ed5-4137-927f-fb68b9199953,Sage Dental,Tampa,FL,33629,Services,-82.50614,27.929953
9ae2f38b-0f10-45a5-8bb4-e81bac9c59c3,ALON,Albuquerque,NM,87112,Convenience & Gas Stations,-106.55134,35.116142
b12fe6d6-8658-4a3d-b920-b069a937ed63,United States Postal Service (USPS),Womelsdorf (Coalton),WV,26257,Services,-79.9666,38.89589
75016d15-c0b5-42da-9069-18145962f883,SpringHill Suites by Marriott,Tempe,AZ,85281,Services,-111.96409,33.428738
f8a29d3a-9163-4c36-95e2-4b428fc624b4,Best Buy,Bay Shore,NY,11706,Electronics & Wireless,-73.23708,40.741077
11240534-5de2-4aa2-8bf2-c67c6fc558ee,Trader Joe's,Washington,DC,20009,"Food, Groceries & Supermarkets",-77.03239,38.916073
2e365e0b-f896-4d7e-b7b9-d0b8686e177c,Starbucks,Short Hills,NJ,07078,Quick Serve Restaurants,-74.36426,40.740757
15b0629b-ff42-407f-a918-fabab9de8099,Progressive,New Brighton,MN,55112,Services,-93.1878,45.071053
05f621c3-64db-4c20-aa42-bba18bc5157e,Enterprise Rent-A-Car,Palm Springs,FL,33461,Automotive,-80.08807,26.634941
179f0536-81d8-4609-a9b2-b223cc3c7210,United Bank,Lincolnton,NC,28092,Services,-81.24566,35.47565
b0cf5409-0d52-4a1e-9198-46e18918b93a,Starbucks,Boardman,OH,44512,Quick Serve Restaurants,-80.63064,41.023746
17afa73e-f9db-4201-bad8-53742dd1a3df,NAPA Auto Parts,San Diego,CA,92154,Automotive,-116.960014,32.554222
d7b43722-dd96-4651-8d81-3d6530096b00,Exxon Mobil,Clinton Township,MI,48035,Convenience & Gas Stations,-82.90985,42.554897
a223567c-304b-4766-9535-ef601d142163,Great Clips,Rochester Hills,MI,48309,Services,-83.200584,42.64162
00e8b478-f47c-49a1-9813-6d36dd78b128,Pizza Hut,Stollings,WV,25601,Quick Serve Restaurants,-81.96506,37.839314
7a7765df-22f9-4ff0-8069-4f0646d92bf4,Mandee,Clifton,NJ,07012,Apparel & Accessories,-74.15337,40.837437
1c8f8681-9850-4393-86cb-a71dda242530,Valero Energy,DeWitt,AR,72042,Convenience & Gas Stations,-91.324844,34.29365
67751a74-e140-4675-aad0-34e3bdac2a65,NAPA Auto Parts,La Fayette,NY,13084,Automotive,-76.10856,42.892433
a04353d1-1bc8-4fad-b378-1c956673c3c4,It's Just Wings,Bossier City,LA,71111,Quick Serve Restaurants,-93.700485,32.529324
17528ed5-a1c5-4688-b47a-afcdad00feb1,"Spec's Wine, Spirits & Finer Foods",Corpus Christi,TX,78414,"Food, Groceries & Supermarkets",-97.365944,27.650734
c286a292-77ff-45a6-8825-50d45f1fbacb,Comfort Suites,Tucson,AZ,85756,Services,-110.93353,32.12645
c47e1a0f-427f-4600-93d9-3938560dc89b,Johnson Controls,Van Buren,AR,72956,Other,-94.33031,35.4146
1450ed03-1d9c-4b6f-9e19-f09d07783322,MasterCuts,Gilbert,AZ,85295,Services,-111.74331,33.311584
b9211499-76d6-43bf-9535-39409a6350fc,Shell Oil,Memphis,TN,38118,Convenience & Gas Stations,-89.94385,35.051422
89c29427-96f0-4d49-8e00-3513e8496edf,Pizza Hut,Lewisburg,PA,17837,Quick Serve Restaurants,-76.89235,40.970345
e757f729-bdc9-426e-a36d-b1b36b53ab08,Valero Energy,Alice,TX,78332,Convenience & Gas Stations,-98.05288,27.759523
0872b8f1-052c-47c8-99b5-0fb90e340174,Rent-A-Center,Flagstaff,AZ,86001,Services,-111.66019,35.19209
c08e020b-cfb0-450b-b281-f31624a2bdec,The Home Depot,West Berlin,NJ,08091,Furniture & Home,-74.93562,39.806175
87b91831-6064-417c-8392-75170769c6d3,Sheetz,Johnstown,PA,15901,Convenience & Gas Stations,-78.91916,40.321423
84ef32c6-b2bb-4ff7-b914-95072bc63ff5,Budget Host,Hutchinson,KS,67501,Services,-97.93306,38.05699
b2514b47-621f-4221-b5f1-22a4e61f5d26,Starbucks,Glen Ridge,NJ,07028,Quick Serve Restaurants,-74.2013,40.79746
dce69cf8-4b4c-4581-b658-1fd4a600083f,AT&T,Columbus,OH,43016,Electronics & Wireless,-83.12776,40.07631
77efa089-08ad-408c-b8a4-7709c0d157a1,Progressive,Ranchettes,WY,82009,Services,-104.72595,41.208538
1c924f63-0433-4a07-8d2b-df62637275ae,Nékter Juice Bar,Brea,CA,92821,Quick Serve Restaurants,-117.90104,33.917156
8087fc62-fbb1-437b-a770-ae900550deb1,Mini Mart,Kerrville,TX,78028,Convenience & Gas Stations,-99.15407,30.022228
053fe40f-3e22-4661-8446-b3ebad6881d1,Bang & Olufsen,New York,NY,10012,Electronics & Wireless,-74.000114,40.723907
361abcb5-a773-42f0-8db7-2ba8f2fbfd60,Little Caesars,Los Angeles,CA,90032,Quick Serve Restaurants,-118.174545,34.087456
7d93e257-3caf-47b7-8fa2-79610bdaae45,Jackson Hewitt Tax Service,Del City,OK,73115,Services,-97.432274,35.435596
74fd28ce-ff93-4c9a-ac10-56cdad789b75,Food 4 Less,Santa Fe Springs,CA,90606,"Food, Groceries & Supermarkets",-118.07416,33.974457
ae2a471d-080c-4252-88e9-6d8dc56be574,Chevron Extra Mile,Arden-Arcade,CA,95821,Convenience & Gas Stations,-121.38258,38.618076
908ce880-cf16-47f9-9472-92feec200a4b,Frisch's Big Boy,Winchester,KY,40391,Restaurants & Bars,-84.21292,38.003452
56af33ec-0810-4b21-9407-c83db1629d0e,Jet's Pizza,Sterling Heights,MI,48310,Quick Serve Restaurants,-83.06895,42.592068
68c4fa76-bad3-475a-82f6-8ce2da334088,Raymond James Financial,Brentwood,TN,37027,Services,-86.80745,36.034714
2b290bb4-82d9-4174-bb5d-04542b307a82,Sun Lake Plaza,Casselberry,FL,32707,unbranded,-81.3215,28.696781
24fc6db1-0212-4873-905f-35e451f90b13,Circle K,San Antonio,TX,78227,Convenience & Gas Stations,-98.638535,29.372355
b018bd38-3175-4bde-baed-059fef355dab,Ferguson,Winter Haven,FL,33880,Other,-81.7385,27.997417
ca607786-7ec6-47e0-a58e-0e37987c36ec,Murphy USA,Joliet,IL,60435,Convenience & Gas Stations,-88.14418,41.521084
e6e97fad-0a99-45cd-815a-0f296070cf29,State Farm,Sauk Centre,MN,56378,Services,-94.95166,45.736794
9c88513f-994f-4b80-bfb2-9960198dff0e,Service King Falconis,Paradise,NV,89118,Automotive,-115.18619,36.081467
80589f95-3006-4350-aca9-6dedc01ac5f2,Ace Hardware,Elk Grove,CA,95757,Furniture & Home,-121.41997,38.405914
ef76190f-224e-4ed9-95f5-f5e3247de7dc,Advance Auto Parts,Scottsville,KY,42164,Automotive,-86.208336,36.74239
b4232419-923c-4d34-9b56-b1ac6fb8396b,Sonic,Casas Adobes,AZ,85741,Quick Serve Restaurants,-111.03594,32.32261
ebb0d513-053e-46b6-bc08-93a9f7beae1b,Allstate Insurance,Los Angeles,CA,91604,Services,-118.37869,34.139637
1b010cbb-1351-4b1a-a914-90c67dc6db5a,Jackson Hewitt Tax Service,Huntsville,TX,77340,Services,-95.570595,30.713774
ed9fcd7b-db71-4818-96d6-7ae930688d5f,K1 Speed,Redmond,WA,98052,Leisure & Recreation,-122.13568,47.62989
a7a42d11-d604-4097-8538-99045a4914d6,Old Dominion Freight Line,Knoxville,TN,37934,Other,-84.23205,35.878693
e2b8e770-f90f-48d2-844b-4114453d9bd7,Breeze Auto Parts,Niagara,WI,54151,Automotive,-88.008766,45.784245
27524a9f-1ad9-4c3a-bb97-7c006f968c06,GolfTec,Pittsburgh,PA,15220,Leisure & Recreation,-80.06977,40.390423
c9b2deef-3f7c-46c7-96a4-2ef291711b5a,Big Lots Stores,New Haven,IN,46774,General Merchandise,-85.042725,41.07124
0df25681-2ab7-46cd-ae60-784405319a40,Sprint,Oroville,CA,95965,Electronics & Wireless,-121.562,39.502377
4920d098-32df-4c1f-bed5-f70233117100,Chase,Sunnyvale,CA,94086,Services,-122.03517,37.373016
ac36c936-e244-4064-8d37-4304b9d53687,Tractor Supply Co.,Minot,ND,58701,Furniture & Home,-101.279144,48.208626
4f4394b5-04a1-4d70-b634-d49a679afe73,Kumon Institute of Education,Rockwall,TX,75087,Other,-96.462585,32.900085
8da9bcba-9985-4016-b1c6-e7f2f58302bf,Rainbow Shops,Rochester,NY,14606,Apparel & Accessories,-77.66057,43.165184
f186c17d-417f-4e4a-932a-5be3e75f0465,MassMututal,Auburn,ME,04210,Services,-70.22606,44.140305
84c37023-9562-48fe-95f5-a5dd29b1cb8d,Kriser's,Glen Ellyn,IL,60137,Specialty Retail,-88.059,41.860596
f22b9082-7ca5-4b1a-8649-6831dd5f7195,Renasant Bank,Baxley,GA,31513,Services,-82.345474,31.77721
b61ff84e-4ef1-4983-b772-d91ebe891704,Starbucks,Fullerton,CA,92832,Quick Serve Restaurants,-117.92477,33.859962
c6dfacfa-2921-461f-9884-c9804824dfe8,Mitsuwa Market Place,Los Angeles,CA,90066,"Food, Groceries & Supermarkets",-118.433464,34.005066
9e7c1d10-5714-4bc5-b216-d5fd9003469a,Tire Warehouse,Essex Junction,VT,05452,Automotive,-73.12329,44.495525
f11c90e3-2026-4483-9275-b9e342283819,Shell Oil,Los Angeles,CA,91402,Convenience & Gas Stations,-118.46738,34.220963
1f69c42b-5abe-498f-8689-2859ff89ada9,BP,Sageville,IA,52002,Convenience & Gas Stations,-90.720276,42.566395
669d0ee7-0698-40be-8b0a-c29ad75d2d8b,Great Clips,Narragansett Pier,RI,02882,Services,-71.48422,41.428635
25680d8d-4ad8-47d1-b5d8-ceba4b5daac4,Dollar Tree,Aliso Viejo,CA,92656,General Merchandise,-117.72534,33.57385
1db36235-3828-471b-a05c-33035d861121,Sprint,Indianapolis city (balance),IN,46237,Electronics & Wireless,-86.08181,39.66776
53eb5988-104f-48a2-91b7-3ab67e70b097,Banfield Pet Hospital,Garden City Park,NY,11040,Services,-73.669395,40.73822
10d79830-7d1a-4c4f-bd17-7b4e6ed45861,Nestlé Café,Bon Air,VA,23235,Quick Serve Restaurants,-77.608536,37.50667
928eb7a4-213b-4446-bae9-d3c72e089e2c,7-Eleven,North Highlands,CA,95842,Convenience & Gas Stations,-121.36489,38.660637
9a5fd9df-45f3-4b38-80c9-f90b6a6efba3,CITGO,Westover,AL,35147,Convenience & Gas Stations,-86.53889,33.3499
5b3c7683-3209-4137-b769-c654edd5914f,The UPS Store,West Monroe,LA,71291,Services,-92.15439,32.51665
8809497c-ff3b-40de-8026-3f302c695934,United States Postal Service (USPS),Brownfield,TX,79316,Services,-102.27789,33.180695
d61ffa34-4a82-445c-88b2-0784d3f026de,Regis Salons,Buford,GA,30519,Services,-83.98428,34.06625
4e90279f-8f9c-4646-a01b-4f045e64268e,McDonald's,Newton,MS,39345,Quick Serve Restaurants,-89.13873,32.33817
cf8dcacc-53c6-4e13-bd38-77641749a29d,Geodis,Ronkonkoma,NY,11779,Services,-73.13506,40.789135
ae7b493c-ef36-4670-8498-f41c918b6791,Subway,Lincoln,NE,68510,Quick Serve Restaurants,-96.60771,40.813103
cdbde21b-f9f4-4eb7-9699-2f632ccc09b2,O'Reilly Auto Parts,Kahului,HI,96732,Automotive,-156.4666,20.89125
69a2770b-a3ac-4e22-82f3-25a6aba1286b,Kelly-Moore Paints,Fort Worth,TX,76104,Furniture & Home,-97.31384,32.706364
3a0bd8a5-bbcc-4fbb-938e-7ecdb56a4df1,H&R Block,Wind Gap,PA,18091,Services,-75.293144,40.84497
